{
    "data": [{
        "id": 1,
        "uuid": "804d4dbc-7d65-4af5-819c-ae8b6f2c1c5d",
        "name": "熊小姐",
        "phone": "13977998024",
        "company": "馨家",
        "township": "西丽街道",
        "address": "广东省深圳市南山区西丽街道西丽大磡科技园2期",
        "latitude": "22.616479",
        "longitude": "113.976914",
        "distance": "42.314"
    }, {
        "id": 2,
        "uuid": "b6de92b4-a03f-4200-a9b7-869d799588a5",
        "name": "徐总",
        "phone": "13128706395",
        "company": "百瑞祥",
        "township": "西丽街道",
        "address": "广东省深圳市南山区西丽街道王京坑工业园34栋",
        "latitude": "22.632980",
        "longitude": "113.969383",
        "distance": "43.351"
    }, {
        "id": 3,
        "uuid": "957a4705-79a0-441a-9fbd-259659139187",
        "name": "李总",
        "phone": "18822869159",
        "company": "华成",
        "township": "石岩街道",
        "address": "广东省深圳市宝安区石岩街道祝龙田路62号",
        "latitude": "22.698790",
        "longitude": "113.956413",
        "distance": "38.289"
    }, {
        "id": 4,
        "uuid": "b5354298-7292-4f7c-8232-f5278f85dc37",
        "name": "袁总",
        "phone": "13823373823",
        "company": "辉煌",
        "township": "多祝镇",
        "address": "广东省惠州市惠东县多祝镇197县道",
        "latitude": "23.037205",
        "longitude": "114.943077",
        "distance": "118.787"
    }, {
        "id": 5,
        "uuid": "ccccbb32-becb-47b2-9be7-09b64f4b9edd",
        "name": "黄总",
        "phone": "13502818239",
        "company": "科曼多",
        "township": "秋长街道",
        "address": "广东省惠州市惠阳区秋长街道秋宝路24",
        "latitude": "22.806885",
        "longitude": "114.420077",
        "distance": "33.361"
    }, {
        "id": 6,
        "uuid": "508b1277-80a3-4c4b-be9c-30b287c919b2",
        "name": "陈总",
        "phone": "13286659289",
        "company": "瑞安丰",
        "township": "西丽街道",
        "address": "广东省深圳市南山区西丽街道丽康路",
        "latitude": "22.625108",
        "longitude": "113.975006",
        "distance": "43.148"
    }, {
        "id": 7,
        "uuid": "ba274214-0aa5-4fcd-b17e-f4e1c11d1c20",
        "name": "杨小姐",
        "phone": "13692156960",
        "company": "雅斯",
        "township": "西丽街道",
        "address": "广东省深圳市南山区西丽街道顺腾达深圳汽车服务有限公司杨门工业区",
        "latitude": "22.622524",
        "longitude": "113.984741",
        "distance": "41.541"
    }, {
        "id": 8,
        "uuid": "ae66cfc9-a76f-4b86-96a7-f6bcd8ddd58c",
        "name": "李总",
        "phone": "8172963056_",
        "company": "冠家",
        "township": "西丽街道",
        "address": "广东省深圳市南山区西丽街道榆峰工业园",
        "latitude": "22.639206",
        "longitude": "113.938740",
        "distance": "45.251"
    }, {
        "id": 9,
        "uuid": "a3de174e-df25-40bf-ba1e-7141226794d7",
        "name": "张总",
        "phone": "13410829455",
        "company": "旭鑫",
        "township": "石岩街道",
        "address": "广东省深圳市宝安区石岩街道富都集团",
        "latitude": "22.670038",
        "longitude": "113.931557",
        "distance": "43.020"
    }, {
        "id": 10,
        "uuid": "b38eddce-b549-47e6-903e-f32b60bb1552",
        "name": "陈总",
        "phone": "18933539758",
        "company": "长信",
        "township": "秋长街道",
        "address": "广东省惠州市惠阳区秋长街道伯爵美墅",
        "latitude": "22.791956",
        "longitude": "114.409798",
        "distance": "30.016"
    }, {
        "id": 11,
        "uuid": "7715d27c-c62d-40b0-bf81-f3642667ca38",
        "name": "小谭",
        "phone": "13392411835",
        "company": "锦衣卫",
        "township": "西丽街道",
        "address": "广东省深圳市南山区西丽街道工业二路20号",
        "latitude": "22.615961",
        "longitude": "113.976700",
        "distance": "42.455"
    }, {
        "id": 12,
        "uuid": "c875834d-0ca9-4a6b-88c8-a67e32528389",
        "name": "邓小姐",
        "phone": "18627126396",
        "company": "沐兰美家",
        "township": "西丽街道",
        "address": "广东省深圳市南山区西丽街道黄京坑羊台山森林公园",
        "latitude": "22.632555",
        "longitude": "113.971626",
        "distance": "42.690"
    }, {
        "id": 13,
        "uuid": "33b60c68-d81b-4484-a241-2e44fba2edbb",
        "name": "蒋总",
        "phone": "13537726097",
        "company": "苏豪",
        "township": "西丽街道",
        "address": "广东省深圳市南山区西丽街道沁园路7977",
        "latitude": "22.615612",
        "longitude": "113.975189",
        "distance": "41.511"
    }, {
        "id": 14,
        "uuid": "1176aaf5-7e8a-459a-9451-0b3eb36fc388",
        "name": "曾总",
        "phone": "15889359254",
        "company": "新德",
        "township": "新圩镇",
        "address": "广东省惠州市惠阳区新圩镇东风幼儿园",
        "latitude": "22.827563",
        "longitude": "114.307251",
        "distance": "31.547"
    }, {
        "id": 15,
        "uuid": "5017bf03-65fd-412b-ba81-4505dce057c3",
        "name": "杨总",
        "phone": "13631760690",
        "company": "展艺",
        "township": "新圩镇",
        "address": "广东省惠州市惠阳区新圩镇青草湖工业园",
        "latitude": "22.852204",
        "longitude": "114.275680",
        "distance": "33.326"
    }, {
        "id": 16,
        "uuid": "395a2868-68bb-49d7-a41a-ffb649ceb470",
        "name": "刘总",
        "phone": "13641471815",
        "company": "嘉艺鑫",
        "township": "新圩镇",
        "address": "广东省惠州市惠阳区新圩镇G25长深高速",
        "latitude": "22.821178",
        "longitude": "114.334229",
        "distance": "28.856"
    }, {
        "id": 17,
        "uuid": "82d29321-4419-4766-8b46-ebeab524e0b4",
        "name": "郑总",
        "phone": "13719529177",
        "company": "建安",
        "township": "新圩镇",
        "address": "广东省惠州市惠阳区新圩镇金钢机械设备厂",
        "latitude": "22.838432",
        "longitude": "114.255437",
        "distance": "30.573"
    }, {
        "id": 18,
        "uuid": "0d22330b-8dd0-4755-b540-92a3534dd166",
        "name": "李生",
        "phone": "3824357460_",
        "company": "家兴",
        "township": "新圩镇",
        "address": "广东省惠州市惠阳区新圩镇宏邦塑胶(惠阳)有限公司",
        "latitude": "22.828152",
        "longitude": "114.305038",
        "distance": "31.612"
    }, {
        "id": 19,
        "uuid": "9949cccd-172b-4341-8da6-73ed27031249",
        "name": "巫生",
        "phone": "13714798221",
        "company": "万达",
        "township": "新圩镇",
        "address": "广东省惠州市惠阳区新圩镇B01乡道",
        "latitude": "22.824362",
        "longitude": "114.313980",
        "distance": "30.749"
    }, {
        "id": 20,
        "uuid": "aa5d6f5e-8e0f-46bc-8047-09c9ded7ac13",
        "name": "徐总",
        "phone": "15915308131",
        "company": "创想",
        "township": "新圩镇",
        "address": "广东省惠州市惠阳区新圩镇源泉电镀厂",
        "latitude": "22.850452",
        "longitude": "114.267792",
        "distance": "32.433"
    }, {
        "id": 21,
        "uuid": "0fd66347-e012-4981-a5c3-86886adb2b85",
        "name": "林生",
        "phone": "13322998261",
        "company": "森龙辉",
        "township": "横岗街道",
        "address": "广东省深圳市龙岗区横岗街道山子下路32号",
        "latitude": "22.646381",
        "longitude": "114.244087",
        "distance": "3.334"
    }, {
        "id": 22,
        "uuid": "b0d1702b-fa1d-4484-8072-9833a252276b",
        "name": "李小姐",
        "phone": "15107529229",
        "company": "柏艺斯",
        "township": "新圩镇",
        "address": "广东省惠州市惠阳区新圩镇惠州市产华工业园",
        "latitude": "22.819806",
        "longitude": "114.337187",
        "distance": "29.238"
    }, {
        "id": 23,
        "uuid": "239ff276-6b82-44ea-bec4-9cddfeb9e915",
        "name": "彩",
        "phone": "13590379909",
        "company": "彩富",
        "township": "平湖街道",
        "address": "广东省深圳市龙岗区平湖街道新木路10号良安田花园",
        "latitude": "22.665890",
        "longitude": "114.142929",
        "distance": "17.678"
    }, {
        "id": 24,
        "uuid": "4300a81f-d4b3-41df-a4ee-20af28f7c09e",
        "name": "刘永霞",
        "phone": "18129903569",
        "company": "冠居",
        "township": "龙岗街道",
        "address": "广东省深圳市龙岗区龙岗街道大坑路2-6号",
        "latitude": "22.699266",
        "longitude": "114.308197",
        "distance": "15.119"
    }, {
        "id": 25,
        "uuid": "c7ae0ec8-eed7-4dec-a6cf-253660fe91a3",
        "name": "杨总",
        "phone": "15014110690",
        "company": "鸿嘉源",
        "township": "横岗街道",
        "address": "广东省深圳市龙岗区横岗街道环山路",
        "latitude": "22.647346",
        "longitude": "114.224696",
        "distance": "2.879"
    }, {
        "id": 26,
        "uuid": "1a2a0fe1-4bec-497a-a6ae-a94f38500f4a",
        "name": "李华",
        "phone": "18098940297",
        "company": "百分百龙岗",
        "township": "龙岗街道",
        "address": "广东省深圳市龙岗区龙岗街道新坑池屋村",
        "latitude": "22.729225",
        "longitude": "114.311646",
        "distance": "18.868"
    }, {
        "id": 27,
        "uuid": "1a08eb68-cc4a-403d-9947-a557fab361b5",
        "name": "李生",
        "phone": "18198821813",
        "company": "大志天成",
        "township": "塘厦镇",
        "address": "广东省东莞市塘厦镇龙口路",
        "latitude": "22.753210",
        "longitude": "114.096298",
        "distance": "27.028"
    }, {
        "id": 28,
        "uuid": "62dac9fa-4192-44ae-aeee-df079dff894c",
        "name": "刘总",
        "phone": "13714133789",
        "company": "双兆",
        "township": "新圩镇",
        "address": "广东省惠州市惠阳区新圩镇奇佑",
        "latitude": "22.845486",
        "longitude": "114.330688",
        "distance": "33.219"
    }, {
        "id": 29,
        "uuid": "1b47ddac-0f4e-4ef2-9fb5-61abb21e4c84",
        "name": "向总",
        "phone": "18924605998",
        "company": "家之康",
        "township": "秋长街道",
        "address": "广东省惠州市惠阳区秋长街道桔园路51",
        "latitude": "22.810980",
        "longitude": "114.428177",
        "distance": "32.929"
    }, {
        "id": 30,
        "uuid": "3b034a1d-eed2-4f53-bc28-6a8e61a262c8",
        "name": "黄老板",
        "phone": "15919997548",
        "company": "泰源樱雪",
        "township": "航城街道",
        "address": "广东省深圳市宝安区航城街道黄金水街38",
        "latitude": "22.665129",
        "longitude": "113.874039",
        "distance": "48.666"
    }, {
        "id": 31,
        "uuid": "3472982e-9758-4b82-a76b-1d629c1cf0a0",
        "name": "刘志强",
        "phone": "13652547909",
        "company": "鸿骏家私",
        "township": "黄江镇",
        "address": "广东省东莞市黄江镇刁朗路72号",
        "latitude": "22.930960",
        "longitude": "114.036232",
        "distance": "66.732"
    }, {
        "id": 32,
        "uuid": "d9a17fb8-86ee-4019-87ca-35be96e62283",
        "name": "杨生",
        "phone": "15989401291",
        "company": "壹方",
        "township": "凤岗镇",
        "address": "广东省东莞市凤岗镇凤翔路209",
        "latitude": "22.740803",
        "longitude": "114.172554",
        "distance": "20.280"
    }, {
        "id": 33,
        "uuid": "73811a6b-a094-430f-b331-0b3b2de94c45",
        "name": "周姐",
        "phone": "13480923634",
        "company": "诺威",
        "township": "坪山街道",
        "address": "广东省深圳市坪山区坪山街道东亚路",
        "latitude": "22.672372",
        "longitude": "114.295639",
        "distance": "12.039"
    }, {
        "id": 35,
        "uuid": "14f7ba1d-d6ae-468b-bab3-4f33ddddb212",
        "name": "李小姐",
        "phone": "13316885693",
        "company": "奥丹迪",
        "township": "横岗街道",
        "address": "广东省深圳市龙岗区横岗街道安良路48号",
        "latitude": "22.625919",
        "longitude": "114.223503",
        "distance": "1.890"
    }, {
        "id": 36,
        "uuid": "dedf28e2-75c1-4f39-940b-05cf47bcb250",
        "name": "小杨",
        "phone": "15219166239",
        "company": "鹰鸿",
        "township": "横岗街道",
        "address": "广东省深圳市龙岗区横岗街道安居路31号锦舜工业园",
        "latitude": "22.629843",
        "longitude": "114.224533",
        "distance": "1.694"
    }, {
        "id": 37,
        "uuid": "6fd11dbb-94fd-4b7e-b30d-45b200058d7e",
        "name": "唐总",
        "phone": "13828738538",
        "company": "保祥发",
        "township": "秋长街道",
        "address": "广东省惠州市惠阳区秋长街道秋溪南路23号",
        "latitude": "22.814570",
        "longitude": "114.418992",
        "distance": "33.441"
    }, {
        "id": 38,
        "uuid": "e1d83517-e5a8-4994-985b-d582f206502e",
        "name": "刘小姐",
        "phone": "84862458___",
        "company": "龙腾",
        "township": "龙岗街道",
        "address": "广东省深圳市龙岗区龙岗街道龙湖路62之泰隆商务酒店(源盛路)",
        "latitude": "22.718981",
        "longitude": "114.290176",
        "distance": "16.197"
    }, {
        "id": 39,
        "uuid": "83ae230c-d183-4621-a7ae-679d4eec2909",
        "name": "张总",
        "phone": "13794463321",
        "company": "骏发家私",
        "township": "秋长街道",
        "address": "广东省惠州市惠阳区秋长街道赢都都工业园",
        "latitude": "22.775768",
        "longitude": "114.374284",
        "distance": "27.939"
    }, {
        "id": 40,
        "uuid": "f97c3555-ee09-4d1d-87f3-1a5246913019",
        "name": "陈总",
        "phone": "13926547098",
        "company": "佳康宝",
        "township": "新圩镇",
        "address": "广东省惠州市惠阳区新圩镇358省道新圩中学",
        "latitude": "22.871145",
        "longitude": "114.336861",
        "distance": "40.208"
    }, {
        "id": 41,
        "uuid": "5bd9f4ad-a64f-4700-a7d4-e7dd3186b1b3",
        "name": "高总",
        "phone": "13728934794",
        "company": "嘉豪",
        "township": "新圩镇",
        "address": "广东省惠州市惠阳区新圩镇205国道",
        "latitude": "22.809648",
        "longitude": "114.332794",
        "distance": "29.880"
    }, {
        "id": 42,
        "uuid": "b0153e81-7e89-464c-9998-fbd81e9fbca9",
        "name": "张生",
        "phone": "13430965667",
        "company": "佳意",
        "township": "新圩镇",
        "address": "广东省惠州市惠阳区新圩镇金雅顺家具",
        "latitude": "22.831619",
        "longitude": "114.320065",
        "distance": "33.171"
    }, {
        "id": 43,
        "uuid": "ffd1a17d-3e60-4d51-8430-44c962a143af",
        "name": "邵小姐",
        "phone": "15690831321",
        "company": "夜郎",
        "township": "秋长街道",
        "address": "广东省惠州市惠阳区秋长街道深达涂料有限公司",
        "latitude": "22.788951",
        "longitude": "114.353881",
        "distance": "31.484"
    }, {
        "id": 44,
        "uuid": "c0f5622b-78f5-4334-961c-5b279aea633e",
        "name": "英生",
        "phone": "13424195009",
        "company": "英格林",
        "township": "新圩镇",
        "address": "广东省惠州市惠阳区新圩镇南星工业区",
        "latitude": "22.823464",
        "longitude": "114.299111",
        "distance": "32.083"
    }, {
        "id": 45,
        "uuid": "99362c22-d439-4dc8-90e6-725dd925b7d8",
        "name": "冯总",
        "phone": "13424195009",
        "company": "好兄弟",
        "township": "新圩镇",
        "address": "广东省惠州市惠阳区新圩镇鸿图圣诞工艺制品有限公司",
        "latitude": "22.853897",
        "longitude": "114.271217",
        "distance": "32.965"
    }, {
        "id": 46,
        "uuid": "0f0c5b0c-6aff-4c40-92b4-0ace1aec8507",
        "name": "李总",
        "phone": "13530301619",
        "company": "美稳",
        "township": "布吉街道",
        "address": "广东省深圳市龙岗区布吉街道甘李路18号甘坑东方幼儿园",
        "latitude": "22.656708",
        "longitude": "114.104317",
        "distance": "22.754"
    }, {
        "id": 47,
        "uuid": "576c3e80-38e1-4c94-b8c2-58e69f37bdf2",
        "name": "廖生",
        "phone": "13713691643",
        "company": "新生隆",
        "township": "新圩镇",
        "address": "广东省惠州市惠阳区新圩镇B01乡道",
        "latitude": "22.824684",
        "longitude": "114.313721",
        "distance": "32.377"
    }, {
        "id": 48,
        "uuid": "bb8f3e1e-c5be-4c90-9e8f-3b64dbfce948",
        "name": "郭总",
        "phone": "13670138800",
        "company": "东霜",
        "township": "坪地街道",
        "address": "广东省深圳市龙岗区坪地街道嘉喜路50号",
        "latitude": "22.755390",
        "longitude": "114.298920",
        "distance": "20.906"
    }, {
        "id": 49,
        "uuid": "0086471b-7e42-449c-8aa3-8a33ded9c20c",
        "name": "刘总",
        "phone": "13713873861",
        "company": "德兴盛刘总",
        "township": "新圩镇",
        "address": "广东省惠州市惠阳区新圩镇731乡道",
        "latitude": "22.855901",
        "longitude": "114.355092",
        "distance": "39.465"
    }, {
        "id": 50,
        "uuid": "07194614-ec1a-4e19-84fb-61493562b3f9",
        "name": "汪生",
        "phone": "18675568075",
        "company": "深源",
        "township": "新圩镇",
        "address": "广东省惠州市惠阳区新圩镇河塘",
        "latitude": "22.843571",
        "longitude": "114.330383",
        "distance": "31.100"
    }, {
        "id": 51,
        "uuid": "34dc6c3b-3687-4389-b2f2-68fc35451314",
        "name": "唐总",
        "phone": "13715278324",
        "company": "福佳兴",
        "township": "横岗街道",
        "address": "广东省深圳市龙岗区横岗街道富康路9号B2栋",
        "latitude": "22.629280",
        "longitude": "114.217041",
        "distance": "3.308"
    }, {
        "id": 52,
        "uuid": "4b33f464-61f8-4097-a240-7056b237f2f0",
        "name": "小敏",
        "phone": "13828824758",
        "company": "惠民",
        "township": "横岗街道",
        "address": "广东省深圳市龙岗区横岗街道大康路66328工业区",
        "latitude": "22.646040",
        "longitude": "114.220398",
        "distance": "3.110"
    }, {
        "id": 53,
        "uuid": "7f1683f1-d116-432d-87f7-6d88671c8c39",
        "name": "林生",
        "phone": "13686850891",
        "company": "惠林",
        "township": "秋长街道",
        "address": "广东省惠州市惠阳区秋长街道彩阳加工厂",
        "latitude": "22.836374",
        "longitude": "114.452087",
        "distance": "45.431"
    }, {
        "id": 54,
        "uuid": "b2bc6a5d-5f0f-4343-b9fc-950669bc2bca",
        "name": "杨总",
        "phone": "15014110690",
        "company": "嘉源",
        "township": "横岗街道",
        "address": "广东省深圳市龙岗区横岗街道高瞻实业有限公司",
        "latitude": "22.657566",
        "longitude": "114.193008",
        "distance": "6.637"
    }, {
        "id": 55,
        "uuid": "5d5f0e03-ec35-43fe-8213-b91fb8942b42",
        "name": "吴总",
        "phone": "13724381935",
        "company": "茂凯",
        "township": "坪地街道",
        "address": "广东省深圳市龙岗区坪地街道南岸路",
        "latitude": "22.754881",
        "longitude": "114.306435",
        "distance": "23.455"
    }, {
        "id": 56,
        "uuid": "61b39511-121c-4f43-998e-1e378ee1b3bf",
        "name": "万生",
        "phone": "13510525793",
        "company": "伊典",
        "township": "坪地街道",
        "address": "广东省深圳市龙岗区坪地街道同富路威世顿科技园",
        "latitude": "22.774059",
        "longitude": "114.326508",
        "distance": "28.854"
    }, {
        "id": 57,
        "uuid": "d9afcfaf-c02c-491b-9de3-25bee3ae294f",
        "name": "刘",
        "phone": "13632982557",
        "company": "创利",
        "township": "观湖街道",
        "address": "广东省深圳市龙华区观湖街道深圳市龙华区观澜镇龙腾工业区",
        "latitude": "22.710371",
        "longitude": "114.083206",
        "distance": "27.471"
    }, {
        "id": 58,
        "uuid": "5f2fc52b-bc1b-4a33-9c45-c0c9ada97a12",
        "name": "钱芳艳",
        "phone": "13266592116",
        "company": "百绘",
        "township": "平湖街道",
        "address": "广东省深圳市龙岗区平湖街道新木路10号良安田花园",
        "latitude": "22.666285",
        "longitude": "114.142629",
        "distance": "15.138"
    }, {
        "id": 59,
        "uuid": "15c4e521-a873-42fc-90f2-6ce510607b96",
        "name": "周小姐",
        "phone": "13316401360",
        "company": "好莱",
        "township": "塘厦镇",
        "address": "广东省东莞市塘厦镇高桥龙路",
        "latitude": "22.792194",
        "longitude": "114.038038",
        "distance": "40.376"
    }, {
        "id": 60,
        "uuid": "954f3b8c-157a-4291-b51a-a37acfe4187f",
        "name": "杨小姐",
        "phone": "18074319415",
        "company": "和家-塘厦",
        "township": "塘厦镇",
        "address": "广东省东莞市塘厦镇三联路7号平山188工业区",
        "latitude": "22.759459",
        "longitude": "114.077171",
        "distance": "28.734"
    }, {
        "id": 61,
        "uuid": "25d5837b-0b2a-4d6c-b7c5-1772599b9ec5",
        "name": "谭总",
        "phone": "18898778960",
        "company": "佳怡兴",
        "township": "凤岗镇",
        "address": "广东省东莞市凤岗镇环森纸卡板角纸",
        "latitude": "22.709866",
        "longitude": "114.152184",
        "distance": "15.340"
    }, {
        "id": 62,
        "uuid": "a0791ebc-9f07-461e-b272-bd5fac8e5933",
        "name": "向总",
        "phone": "15817380849",
        "company": "金尚",
        "township": "凤岗镇",
        "address": "广东省东莞市凤岗镇凤平路奇华工业区",
        "latitude": "22.716650",
        "longitude": "114.139236",
        "distance": "17.684"
    }, {
        "id": 63,
        "uuid": "4dc418ab-0f9b-487f-8563-3c2459a64eb7",
        "name": "李青运",
        "phone": "18318688230",
        "company": "菲霖",
        "township": "凤岗镇",
        "address": "广东省东莞市凤岗镇水背环工业一路5号",
        "latitude": "22.720980",
        "longitude": "114.165863",
        "distance": "15.799"
    }, {
        "id": 64,
        "uuid": "bc3b1de4-6a99-4907-855e-92713887128a",
        "name": "黄小姐",
        "phone": "13480128578",
        "company": "绿岛",
        "township": "新圩镇",
        "address": "广东省惠州市惠阳区新圩镇韦豪工业园",
        "latitude": "22.823111",
        "longitude": "114.333519",
        "distance": "28.926"
    }, {
        "id": 65,
        "uuid": "23a86475-59b3-4ffd-979e-0585a816e3b5",
        "name": "赵锦凤",
        "phone": "82596660___",
        "company": "大洋天誉",
        "township": "观澜街道",
        "address": "广东省深圳市龙华区观澜街道菠萝岭路14号科伟创工业",
        "latitude": "22.743538",
        "longitude": "114.094933",
        "distance": "29.934"
    }, {
        "id": 66,
        "uuid": "fb2d578b-ebdf-43fc-8c50-2093236613e9",
        "name": "谢总",
        "phone": "13480132967",
        "company": "谢老板",
        "township": "南湾街道",
        "address": "广东省深圳市龙岗区南湾街道园墩路58号丹竹头高新科技园",
        "latitude": "22.627546",
        "longitude": "114.152374",
        "distance": "11.955"
    }, {
        "id": 68,
        "uuid": "0ec63a2c-94b9-4d48-9229-17d12d190378",
        "name": "美女",
        "phone": "26985257___",
        "company": "腾飞",
        "township": "西丽街道",
        "address": "广东省深圳市南山区西丽街道王京坑路80号",
        "latitude": "22.624716",
        "longitude": "113.974335",
        "distance": "40.620"
    }, {
        "id": 69,
        "uuid": "f5cc697d-e13c-430e-82fb-54fce2117bf0",
        "name": "邓强",
        "phone": "13425191031",
        "company": "建丰",
        "township": "龙岗街道",
        "address": "广东省深圳市龙岗区龙岗街道深圳市百富城市场经营管理有限公司百富城(龙平东路)",
        "latitude": "22.738684",
        "longitude": "114.261269",
        "distance": "16.104"
    }, {
        "id": 70,
        "uuid": "6660afa5-ca7d-4a69-94c4-149ce097262a",
        "name": "洪生",
        "phone": "13760396925",
        "company": "建安秋长",
        "township": "秋长街道",
        "address": "广东省惠州市惠阳区秋长街道新润佳超市",
        "latitude": "22.780763",
        "longitude": "114.397395",
        "distance": "28.551"
    }, {
        "id": 71,
        "uuid": "f531c3cc-94e3-484e-af4c-388d8b5c1bbf",
        "name": "田生",
        "phone": "15323792192",
        "company": "明冠",
        "township": "塘厦镇",
        "address": "广东省东莞市塘厦镇龙口路",
        "latitude": "22.753365",
        "longitude": "114.096268",
        "distance": "33.089"
    }, {
        "id": 72,
        "uuid": "7c69cbf4-96ce-4753-b451-e864fac31ed2",
        "name": "朱道先",
        "phone": "13826930443",
        "company": "创城",
        "township": "凤岗镇",
        "address": "广东省东莞市凤岗镇清凤路王子酒店",
        "latitude": "22.762634",
        "longitude": "114.139885",
        "distance": "25.729"
    }, {
        "id": 73,
        "uuid": "effd11f3-6765-42c6-be1e-0d2519e41af4",
        "name": "李生",
        "phone": "15818588570",
        "company": "健隆",
        "township": "塘厦镇",
        "address": "广东省东莞市塘厦镇田兴路",
        "latitude": "22.761019",
        "longitude": "114.100381",
        "distance": "26.422"
    }, {
        "id": 74,
        "uuid": "34e928b2-bef3-4ae9-8c67-e551ac56c1b8",
        "name": "程光训",
        "phone": "13686874382",
        "company": "鹏远翔",
        "township": "新圩镇",
        "address": "广东省惠州市惠阳区新圩镇利洪",
        "latitude": "22.826031",
        "longitude": "114.307503",
        "distance": "31.357"
    }, {
        "id": 75,
        "uuid": "cd57a42f-0ac4-4fb2-aa15-29a68a3a7cde",
        "name": "罗总",
        "phone": "13670123596",
        "company": "创佳",
        "township": "新圩镇",
        "address": "广东省惠州市惠阳区新圩镇惠阳区深鹏工业园",
        "latitude": "22.812340",
        "longitude": "114.320847",
        "distance": "29.891"
    }, {
        "id": 76,
        "uuid": "25ed3890-a233-4cc5-8f12-a2e6f88c680a",
        "name": "张生",
        "phone": "13923686183",
        "company": "柏威",
        "township": "新圩镇",
        "address": "广东省惠州市惠阳区新圩镇浩天家具厂",
        "latitude": "22.819082",
        "longitude": "114.305305",
        "distance": "30.974"
    }, {
        "id": 77,
        "uuid": "81bf14ea-9873-4053-b090-fae01d214457",
        "name": "吴盖",
        "phone": "15986768813",
        "company": "特维家",
        "township": "龙岗街道",
        "address": "广东省深圳市龙岗区龙岗街道景盛路",
        "latitude": "22.698406",
        "longitude": "114.304153",
        "distance": "15.459"
    }, {
        "id": 78,
        "uuid": "f141cedf-3a13-482f-abd4-d2fee5b4637b",
        "name": "高生",
        "phone": "3621829____",
        "company": "亮丽",
        "township": "新圩镇",
        "address": "广东省惠州市惠阳区新圩镇惠阳区深鹏工业园",
        "latitude": "22.811296",
        "longitude": "114.319550",
        "distance": "29.967"
    }, {
        "id": 79,
        "uuid": "e5ef14c6-f097-417f-9ada-757056f0c58f",
        "name": "林生",
        "phone": "84846226___",
        "company": "欣顺达",
        "township": "龙岗街道",
        "address": "广东省深圳市龙岗区龙岗街道大埔二路15号名星学校",
        "latitude": "22.713378",
        "longitude": "114.295460",
        "distance": "16.337"
    }, {
        "id": 80,
        "uuid": "c94622c4-0ff8-4191-8c59-8b12bb0dd40b",
        "name": "梁生",
        "phone": "13510338620",
        "company": "永恒祥",
        "township": "塘厦镇",
        "address": "广东省东莞市塘厦镇工业大道97号",
        "latitude": "22.759418",
        "longitude": "114.106194",
        "distance": "33.903"
    }, {
        "id": 81,
        "uuid": "0972f290-2e27-430f-9f69-0f3f038a02a1",
        "name": "张生",
        "phone": "18770674638",
        "company": "金艺莱",
        "township": "凤岗镇",
        "address": "广东省东莞市凤岗镇东莞新华工业城",
        "latitude": "22.715076",
        "longitude": "114.144226",
        "distance": "17.143"
    }, {
        "id": 82,
        "uuid": "6205e6f1-715b-43ff-80e3-81b1bb3276c6",
        "name": "杨总",
        "phone": "15347455050",
        "company": "立杨",
        "township": "秋长街道",
        "address": "广东省惠州市惠阳区秋长街道秋南人力资源和社会保障服务所",
        "latitude": "22.770300",
        "longitude": "114.386467",
        "distance": "26.632"
    }, {
        "id": 83,
        "uuid": "432db4ae-ad2b-4fac-96f0-113010a50a91",
        "name": "黄生",
        "phone": "13380650333",
        "company": "爱凯",
        "township": "新圩镇",
        "address": "广东省惠州市惠阳区新圩镇杜克",
        "latitude": "22.847973",
        "longitude": "114.356796",
        "distance": "39.907"
    }, {
        "id": 84,
        "uuid": "fbc0196a-d0dc-4add-808d-4910b0521341",
        "name": "小强",
        "phone": "13686856656",
        "company": "新达威",
        "township": "秋长街道",
        "address": "广东省惠州市惠阳区秋长街道大恒艺术浮雕培训",
        "latitude": "22.773130",
        "longitude": "114.376572",
        "distance": "27.594"
    }, {
        "id": 85,
        "uuid": "74a4f1d9-8424-4f2c-8fc0-069f858956e4",
        "name": "谢总",
        "phone": "18028780982",
        "company": "新怡",
        "township": "秋长街道",
        "address": "广东省惠州市惠阳区秋长街道沙县小吃",
        "latitude": "22.782993",
        "longitude": "114.416138",
        "distance": "37.037"
    }, {
        "id": 86,
        "uuid": "fed16855-821d-40a3-bcfc-23d7d68d024e",
        "name": "黄安利",
        "phone": "13682659633",
        "company": "齐利",
        "township": "秋长街道",
        "address": "广东省惠州市惠阳区秋长街道俊源工业园",
        "latitude": "22.784489",
        "longitude": "114.388868",
        "distance": "27.989"
    }, {
        "id": 87,
        "uuid": "371643c0-c8a5-47c4-8fd6-9dd52d7ce24a",
        "name": "李友",
        "phone": "15118004680",
        "company": "汇城",
        "township": "新圩镇",
        "address": "广东省惠州市惠阳区新圩镇牛寮下",
        "latitude": "22.824846",
        "longitude": "114.367152",
        "distance": "42.311"
    }, {
        "id": 88,
        "uuid": "f9f3e325-33b8-440b-8cae-e5bf1526934e",
        "name": "陈小姐",
        "phone": "15819914250",
        "company": "和美",
        "township": "秋长街道",
        "address": "广东省惠州市惠阳区秋长街道明威纸品有限公司",
        "latitude": "22.825029",
        "longitude": "114.424591",
        "distance": "40.646"
    }, {
        "id": 89,
        "uuid": "92e86a72-bd7c-44ef-9f3c-2285a57543b3",
        "name": "林建安",
        "phone": "13312938816",
        "company": "建好居",
        "township": "秋长街道",
        "address": "广东省惠州市惠阳区秋长街道高埔",
        "latitude": "22.803852",
        "longitude": "114.424370",
        "distance": "31.744"
    }, {
        "id": 90,
        "uuid": "9d51d31e-bd52-4011-91dd-e41ea622fde7",
        "name": "颜小英",
        "phone": "13699778590",
        "company": "天骏",
        "township": "新圩镇",
        "address": "广东省惠州市惠阳区新圩镇李柏林诊所",
        "latitude": "22.838402",
        "longitude": "114.365486",
        "distance": "40.685"
    }, {
        "id": 91,
        "uuid": "f54baaf2-d0b3-480d-bc12-3f25b72477bb",
        "name": "张总",
        "phone": "13713863738",
        "company": "东旺",
        "township": "新圩镇",
        "address": "广东省惠州市惠阳区新圩镇联利五金塑胶制品有限公司",
        "latitude": "22.798686",
        "longitude": "114.270604",
        "distance": "25.050"
    }, {
        "id": 92,
        "uuid": "984b57c8-382a-4367-9671-d551c641c418",
        "name": "王总",
        "phone": "15818566618",
        "company": "德利信恋",
        "township": "横岗街道",
        "address": "广东省深圳市龙岗区横岗街道排榜村(华美购物中心东)蛇地岭小区",
        "latitude": "22.653419",
        "longitude": "114.195305",
        "distance": "6.173"
    }, {
        "id": 94,
        "uuid": "da6c78df-c2c4-4369-9f46-f427b95ca913",
        "name": "李总",
        "phone": "18002537154",
        "company": "佳华",
        "township": "横岗街道",
        "address": "广东省深圳市龙岗区横岗街道牛始埔路9号",
        "latitude": "22.629282",
        "longitude": "114.182678",
        "distance": "6.955"
    }, {
        "id": 95,
        "uuid": "361d9e7d-6d74-4fb7-9f73-99c0709abcec",
        "name": "王小姐",
        "phone": "15993243581",
        "company": "妍慧",
        "township": "横岗街道",
        "address": "广东省深圳市龙岗区横岗街道G4E武深高速",
        "latitude": "22.635647",
        "longitude": "114.167480",
        "distance": "8.432"
    }, {
        "id": 96,
        "uuid": "37ced96e-6977-4aac-a002-baa3205e1f88",
        "name": "陈总",
        "phone": "13798343217",
        "company": "恒信",
        "township": "平湖街道",
        "address": "广东省深圳市龙岗区平湖街道皋平路9",
        "latitude": "22.653959",
        "longitude": "114.148628",
        "distance": "13.471"
    }, {
        "id": 97,
        "uuid": "73c33100-0851-41d9-80ee-5dc940d95067",
        "name": "丰",
        "phone": "18128488080",
        "company": "匠心",
        "township": "新圩镇",
        "address": "广东省惠州市惠阳区新圩镇柏兴工艺",
        "latitude": "22.841734",
        "longitude": "114.260330",
        "distance": "31.120"
    }, {
        "id": 98,
        "uuid": "a1c6765a-0762-400c-bda4-a1a579d30566",
        "name": "黄生",
        "phone": "17603006611",
        "company": "锦盛",
        "township": "新圩镇",
        "address": "广东省惠州市惠阳区新圩镇浩天家具厂",
        "latitude": "22.819752",
        "longitude": "114.307130",
        "distance": "30.798"
    }, {
        "id": 99,
        "uuid": "6472cd20-97c0-4754-b519-95e09b91fca1",
        "name": "张总",
        "phone": "13432329264",
        "company": "美居",
        "township": "坪山街道",
        "address": "广东省深圳市坪山区坪山街道永恒汽车轮胎润滑油电池经营部",
        "latitude": "22.667900",
        "longitude": "114.286331",
        "distance": "13.159"
    }, {
        "id": 100,
        "uuid": "29353d7b-48ee-4baa-a1fc-e27be0897ec7",
        "name": "王总",
        "phone": "13528452145",
        "company": "雅舍",
        "township": "龙城街道",
        "address": "广东省深圳市龙岗区龙城街道深安电子科技有限公司韩天科技园",
        "latitude": "22.751219",
        "longitude": "114.223938",
        "distance": "17.451"
    }, {
        "id": 101,
        "uuid": "74f56570-cb15-458c-b43c-79291f2e2eb5",
        "name": "金波",
        "phone": "13826553948",
        "company": "艺高",
        "township": "龙城街道",
        "address": "广东省深圳市龙岗区龙城街道瓦陶北六巷2号",
        "latitude": "22.754731",
        "longitude": "114.243629",
        "distance": "17.619"
    }, {
        "id": 102,
        "uuid": "d84c8825-73ca-4a85-a826-0408db58a5e9",
        "name": "钱总",
        "phone": "15817389881",
        "company": "鑫泉安",
        "township": "坪地街道",
        "address": "广东省深圳市龙岗区坪地街道吉利路金桥工业区(吉利路)",
        "latitude": "22.773680",
        "longitude": "114.291687",
        "distance": "22.455"
    }, {
        "id": 103,
        "uuid": "99bea212-ec4e-4bec-99bc-af7164d1de7a",
        "name": "冯总",
        "phone": "13682318957",
        "company": "雅丹利",
        "township": "坪山街道",
        "address": "广东省深圳市坪山区坪山街道金碧路492金淙淳工业园",
        "latitude": "22.675468",
        "longitude": "114.303281",
        "distance": "12.033"
    }, {
        "id": 104,
        "uuid": "84de9d35-a747-4466-9890-5ee21e4b1453",
        "name": "林生",
        "phone": "13923890881",
        "company": "福港",
        "township": "新圩镇",
        "address": "广东省惠州市惠阳区新圩镇联利五金塑胶制品有限公司",
        "latitude": "22.799231",
        "longitude": "114.270638",
        "distance": "24.990"
    }, {
        "id": 105,
        "uuid": "79c89779-c8e5-4422-8425-e7d275c55257",
        "name": "李总",
        "phone": "13603065378",
        "company": "雅众",
        "township": "新圩镇",
        "address": "广东省惠州市惠阳区新圩镇永聚科技园",
        "latitude": "22.827111",
        "longitude": "114.328796",
        "distance": "29.473"
    }, {
        "id": 106,
        "uuid": "ac2c02cd-1c95-43cb-8960-63249d34d469",
        "name": "李总",
        "phone": "15889497213",
        "company": "平峰",
        "township": "新圩镇",
        "address": "广东省惠州市惠阳区新圩镇丽天润滑油南星工业区",
        "latitude": "22.824360",
        "longitude": "114.299828",
        "distance": "31.924"
    }, {
        "id": 107,
        "uuid": "04c08bbf-f353-4a53-8019-b15f8468545c",
        "name": "陈",
        "phone": "18162154864",
        "company": "匠心世家",
        "township": "新圩镇",
        "address": "广东省惠州市惠阳区新圩镇山下敬诚星光彩家具厂",
        "latitude": "22.860472",
        "longitude": "114.258087",
        "distance": "40.829"
    }, {
        "id": 108,
        "uuid": "bb7c66df-9250-443b-b27a-34f68c633bc7",
        "name": "杜先生",
        "phone": "13713597187",
        "company": "旭恒",
        "township": "新圩镇",
        "address": "广东省惠州市惠阳区新圩镇大新汽车维修服务中心",
        "latitude": "22.845835",
        "longitude": "114.276451",
        "distance": "33.275"
    }, {
        "id": 109,
        "uuid": "62cf0842-060c-464c-9b5a-93d4ef628d78",
        "name": "李总",
        "phone": "13424335006",
        "company": "家艺",
        "township": "秋长街道",
        "address": "广东省惠州市惠阳区秋长街道惠州市三德鑫科技有限公司",
        "latitude": "22.828140",
        "longitude": "114.436012",
        "distance": "44.866"
    }, {
        "id": 110,
        "uuid": "c332c4da-0f18-45ce-8198-5e85ca6c068a",
        "name": "刘生",
        "phone": "18822821826",
        "company": "快怡",
        "township": "沙田镇",
        "address": "广东省惠州市惠阳区沙田镇松子园",
        "latitude": "22.885111",
        "longitude": "114.578247",
        "distance": "56.825"
    }, {
        "id": 111,
        "uuid": "7708b2a6-6390-4115-a2b0-eb4c9e41ab3a",
        "name": "吕总",
        "phone": "13418847967",
        "company": "万宝",
        "township": "新圩镇",
        "address": "广东省惠州市惠阳区新圩镇黄蜂尾",
        "latitude": "22.810852",
        "longitude": "114.317101",
        "distance": "29.951"
    }, {
        "id": 112,
        "uuid": "9c724d86-aae1-4833-b3d3-25c366832be0",
        "name": "吴总",
        "phone": "13632559418",
        "company": "佳富来",
        "township": "新圩镇",
        "address": "广东省惠州市惠阳区新圩镇948乡道",
        "latitude": "22.801065",
        "longitude": "114.265051",
        "distance": "26.846"
    }, {
        "id": 113,
        "uuid": "3635b11b-6bc8-447c-929b-7e193d053cb2",
        "name": "余总",
        "phone": "18129541565",
        "company": "依迈尼",
        "township": "新圩镇",
        "address": "广东省惠州市惠阳区新圩镇潮汕砂锅粥鑫来福商行",
        "latitude": "22.830579",
        "longitude": "114.251022",
        "distance": "29.535"
    }, {
        "id": 114,
        "uuid": "cd60b842-e925-4754-9dee-d4af59e5748f",
        "name": "张洪新",
        "phone": "13713958881",
        "company": "宝仑",
        "township": "新圩镇",
        "address": "广东省惠州市惠阳区新圩镇853乡道",
        "latitude": "22.854952",
        "longitude": "114.265826",
        "distance": "40.838"
    }, {
        "id": 115,
        "uuid": "48d554e4-4b70-4709-a40b-e08f53e11db2",
        "name": "陈总",
        "phone": "18665975358",
        "company": "柏维",
        "township": "新圩镇",
        "address": "广东省惠州市惠阳区新圩镇358省道",
        "latitude": "22.829730",
        "longitude": "114.297953",
        "distance": "43.136"
    }, {
        "id": 116,
        "uuid": "c5a57b52-6945-45f2-aae3-2d38b0d37139",
        "name": "康总",
        "phone": "13829929058",
        "company": "华贝尔",
        "township": "淡水街道",
        "address": "广东省惠州市惠阳区淡水街道上廖",
        "latitude": "22.768433",
        "longitude": "114.465179",
        "distance": "38.517"
    }, {
        "id": 117,
        "uuid": "5615def6-e6b4-4cb8-9a70-6d2f32134b57",
        "name": "黄美花",
        "phone": "1368661814_",
        "company": "博曼迪克",
        "township": "新圩镇",
        "address": "广东省惠州市惠阳区新圩镇骏鸿海绵",
        "latitude": "22.861624",
        "longitude": "114.234886",
        "distance": "38.668"
    }, {
        "id": 118,
        "uuid": "3feaad5e-a988-4c8b-b091-76346ca7cca4",
        "name": "龙老板",
        "phone": "13680838490",
        "company": "兴龙",
        "township": "新圩镇",
        "address": "广东省惠州市惠阳区新圩镇兴鸿昌工业园",
        "latitude": "22.830950",
        "longitude": "114.324181",
        "distance": "31.940"
    }, {
        "id": 119,
        "uuid": "d1f85b3b-74a1-4d55-88a4-0f4902c0699c",
        "name": "李刚",
        "phone": "13538006433",
        "company": "兴瑞康",
        "township": "新圩镇",
        "address": "广东省惠州市惠阳区新圩镇广惠家私城",
        "latitude": "22.846806",
        "longitude": "114.274338",
        "distance": "32.673"
    }, {
        "id": 120,
        "uuid": "2e4b865f-21b3-464b-8643-649c8dea3c80",
        "name": "利生",
        "phone": "13528499883",
        "company": "创世纪",
        "township": "塘厦镇",
        "address": "广东省东莞市塘厦镇建设路",
        "latitude": "22.749457",
        "longitude": "114.109450",
        "distance": "32.816"
    }, {
        "id": 121,
        "uuid": "67df3978-b513-43ff-b00b-5caded32e5ef",
        "name": "康小姐",
        "phone": "1362094523_",
        "company": "天科",
        "township": "西丽街道",
        "address": "广东省深圳市南山区西丽街道丽康路",
        "latitude": "22.628614",
        "longitude": "113.968300",
        "distance": "43.209"
    }, {
        "id": 122,
        "uuid": "603f9703-ed97-4904-9b53-75d4a4c6a3b6",
        "name": "杨总",
        "phone": "13902914646",
        "company": "家旺",
        "township": "南湾街道",
        "address": "广东省深圳市龙岗区南湾街道合益胶盒厂有限公司合益园",
        "latitude": "22.626575",
        "longitude": "114.166344",
        "distance": "12.301"
    }, {
        "id": 123,
        "uuid": "5372cfb0-8be7-4b7a-b3e6-73dc003b64c5",
        "name": "温总",
        "phone": "07698207411",
        "company": "鸿利之家",
        "township": "凤岗镇",
        "address": "广东省东莞市凤岗镇松柏路7",
        "latitude": "22.756555",
        "longitude": "114.147046",
        "distance": "24.286"
    }, {
        "id": 124,
        "uuid": "c2446ca1-79af-47b4-ae6e-b39fb16475e1",
        "name": "小谷",
        "phone": "13620041210",
        "company": "和鑫",
        "township": "塘厦镇",
        "address": "广东省东莞市塘厦镇工业大道98",
        "latitude": "22.759430",
        "longitude": "114.105652",
        "distance": "34.788"
    }, {
        "id": 125,
        "uuid": "e528f1cf-7c4f-4ef9-8def-843df35ddff3",
        "name": "涂生",
        "phone": "15012702125",
        "company": "汇盈嘉",
        "township": "新圩镇",
        "address": "广东省惠州市惠阳区新圩镇惠州市惠阳双新水泥有限公司",
        "latitude": "22.824957",
        "longitude": "114.328682",
        "distance": "29.007"
    }, {
        "id": 126,
        "uuid": "4b6ce21e-2aa9-4319-b819-4fe2f97e8f79",
        "name": "霍生",
        "phone": "13715091123",
        "company": "日顺辉",
        "township": "常平镇",
        "address": "广东省东莞市常平镇横塘路2号",
        "latitude": "22.986250",
        "longitude": "114.022571",
        "distance": "69.956"
    }, {
        "id": 127,
        "uuid": "778d1d76-cf3c-4167-9e21-8ce508d6078d",
        "name": "吴生",
        "phone": "13360407998",
        "company": "柏毅",
        "township": "新圩镇",
        "address": "广东省惠州市惠阳区新圩镇骏达文具",
        "latitude": "22.846910",
        "longitude": "114.329514",
        "distance": "33.288"
    }, {
        "id": 128,
        "uuid": "c8990983-b3a5-4f19-9ccc-63b486b033a9",
        "name": "周",
        "phone": "15918671787",
        "company": "港陆蓝",
        "township": "凤岗镇",
        "address": "广东省东莞市凤岗镇金城路80号",
        "latitude": "22.742399",
        "longitude": "114.173851",
        "distance": "19.771"
    }, {
        "id": 129,
        "uuid": "b62ab0cc-58aa-4be8-aafd-86c44de9c0c0",
        "name": "张总",
        "phone": "13828827786",
        "company": "胜益",
        "township": "新圩镇",
        "address": "广东省惠州市惠阳区新圩镇波美",
        "latitude": "22.875179",
        "longitude": "114.330673",
        "distance": "41.025"
    }, {
        "id": 130,
        "uuid": "ab911fe1-f4b7-410a-af76-0a8194e0013e",
        "name": "李小姐",
        "phone": "13652356752",
        "company": "宏雅",
        "township": "西丽街道",
        "address": "广东省深圳市南山区西丽街道大勘工业一路4号",
        "latitude": "22.619509",
        "longitude": "113.977379",
        "distance": "41.843"
    }, {
        "id": 131,
        "uuid": "d80d9847-28c7-4ad0-8a11-2f8e911f2959",
        "name": "美女",
        "phone": "13825225367",
        "company": "鸿利橱柜",
        "township": "横岗街道",
        "address": "广东省深圳市龙岗区横岗街道横坪连接线",
        "latitude": "22.648879",
        "longitude": "114.233542",
        "distance": "4.503"
    }, {
        "id": 132,
        "uuid": "33285fdd-a51a-42b6-9f82-e7bdf258a0d4",
        "name": "张总",
        "phone": "13682661127",
        "company": "雄冠",
        "township": "桥头镇",
        "address": "广东省东莞市桥头镇光明路60号李屋沿河工业区",
        "latitude": "23.027620",
        "longitude": "114.101082",
        "distance": "73.563"
    }, {
        "id": 133,
        "uuid": "76efef51-0cd2-4619-9026-516575df43a1",
        "name": "江小姐",
        "phone": "18617096316",
        "company": "星尼美",
        "township": "塘厦镇",
        "address": "广东省东莞市塘厦镇黄果塘路荣基石材",
        "latitude": "22.765268",
        "longitude": "114.069328",
        "distance": "42.252"
    }, {
        "id": 134,
        "uuid": "9cf00eb9-9696-4788-b0c5-174d2f072577",
        "name": "耿玉",
        "phone": "13530001970",
        "company": "欧尚雅居",
        "township": "龙岗街道",
        "address": "广东省深圳市龙岗区龙岗街道深圳市帝锋木业有限公司",
        "latitude": "22.735241",
        "longitude": "114.316689",
        "distance": "20.608"
    }, {
        "id": 135,
        "uuid": "8c53e958-61d4-4ca8-a6c8-3c89de5b7275",
        "name": "余生",
        "phone": "13510664089",
        "company": "日盛",
        "township": "凤岗镇",
        "address": "广东省东莞市凤岗镇镇田南路22",
        "latitude": "22.687691",
        "longitude": "114.169022",
        "distance": "13.110"
    }, {
        "id": 136,
        "uuid": "4a63a84c-51da-4c79-a0e2-a313177d41fd",
        "name": "刘佩珊",
        "phone": "86330058___",
        "company": "格德曼",
        "township": "西丽街道",
        "address": "广东省深圳市南山区西丽街道杨门工业区",
        "latitude": "22.623089",
        "longitude": "113.983269",
        "distance": "41.459"
    }, {
        "id": 137,
        "uuid": "221846f4-05d9-491a-90c0-05d7efae1060",
        "name": "杨总",
        "phone": "13823373510",
        "company": "鑫海艺佳",
        "township": "新圩镇",
        "address": "广东省惠州市惠阳区新圩镇G25长深高速",
        "latitude": "22.828061",
        "longitude": "114.334757",
        "distance": "29.238"
    }, {
        "id": 138,
        "uuid": "e5245aaf-0cec-46ef-a665-a5d0afcd3f45",
        "name": "林生",
        "phone": "15959579759",
        "company": "玮发",
        "township": "新圩镇",
        "address": "广东省惠州市惠阳区新圩镇富源涂料",
        "latitude": "22.827577",
        "longitude": "114.309475",
        "distance": "31.387"
    }, {
        "id": 139,
        "uuid": "3e765b74-88db-4adb-86e0-0ea1b5a0211e",
        "name": "翟总",
        "phone": "18312461300",
        "company": "万顺",
        "township": "沙田镇",
        "address": "广东省惠州市惠阳区沙田镇松子园",
        "latitude": "22.885481",
        "longitude": "114.578209",
        "distance": "56.861"
    }, {
        "id": 140,
        "uuid": "1da0b92a-d886-4763-98cf-c01868f2f289",
        "name": "嘉美",
        "phone": "13423951613",
        "company": "嘉美",
        "township": "新圩镇",
        "address": "广东省惠州市惠阳区新圩镇银瓶路创鑫工业园",
        "latitude": "22.856204",
        "longitude": "114.250129",
        "distance": "39.348"
    }, {
        "id": 141,
        "uuid": "72e7e087-2fd6-476d-a667-d11eadbb0c37",
        "name": "林总",
        "phone": "15218244114",
        "company": "名匠居",
        "township": "新圩镇",
        "address": "广东省惠州市惠阳区新圩镇塘吓大道4巷东升实验学校",
        "latitude": "22.828854",
        "longitude": "114.328850",
        "distance": "31.225"
    }, {
        "id": 142,
        "uuid": "0dea46e3-c4df-488a-be0c-802109f5cf3c",
        "name": "吴总",
        "phone": "13417595383",
        "company": "鸿林",
        "township": "秋长街道",
        "address": "广东省惠州市惠阳区秋长街道惠州市义恒轩(白石)工业园",
        "latitude": "22.773642",
        "longitude": "114.381302",
        "distance": "27.024"
    }, {
        "id": 143,
        "uuid": "cf38deb1-b422-4afe-8388-e6208f9194be",
        "name": "何军",
        "phone": "13699770407",
        "company": "嘉诚",
        "township": "观湖街道",
        "address": "广东省深圳市龙华区观湖街道新樟路139",
        "latitude": "22.692966",
        "longitude": "114.090736",
        "distance": "27.713"
    }, {
        "id": 144,
        "uuid": "b5a9878d-a670-478f-a3e3-0b7c021bd295",
        "name": "巫生",
        "phone": "13828893649",
        "company": "鸿锐",
        "township": "凤岗镇",
        "address": "广东省东莞市凤岗镇油溪路2号",
        "latitude": "22.716070",
        "longitude": "114.168868",
        "distance": "16.386"
    }, {
        "id": 145,
        "uuid": "c71d33d9-25e8-4f5a-b3e2-6447d27338c2",
        "name": "何小姐",
        "phone": "13544435344",
        "company": "贝饰特",
        "township": "龙岗街道",
        "address": "广东省深圳市龙岗区龙岗街道银龙工业城小区银龙工业物流园",
        "latitude": "22.716953",
        "longitude": "114.296196",
        "distance": "17.124"
    }, {
        "id": 146,
        "uuid": "6d8a7c0d-0dc5-493a-ba50-ee9f669fc611",
        "name": "王总",
        "phone": "13924666191",
        "company": "晶美石",
        "township": "平湖街道",
        "address": "广东省深圳市龙岗区平湖街道皋平路",
        "latitude": "22.655331",
        "longitude": "114.149460",
        "distance": "15.184"
    }, {
        "id": 147,
        "uuid": "03948c6e-8f93-43ae-a3eb-e828d0a51330",
        "name": "莫总",
        "phone": "13418807742",
        "company": "亿诺",
        "township": "平湖街道",
        "address": "广东省深圳市龙岗区平湖街道深圳市创先展览展示制品有限公司",
        "latitude": "22.653263",
        "longitude": "114.148781",
        "distance": "14.949"
    }, {
        "id": 148,
        "uuid": "8fab5575-f3f7-47bd-9b87-4f99ee08e624",
        "name": "谢总",
        "phone": "13682510548",
        "company": "东立",
        "township": "平湖街道",
        "address": "广东省深圳市龙岗区平湖街道高宝路2号e栋",
        "latitude": "22.674416",
        "longitude": "114.156784",
        "distance": "17.420"
    }, {
        "id": 149,
        "uuid": "e4a79368-5fb4-4cd1-bf8b-2957cbfce815",
        "name": "杨总",
        "phone": "13410274032",
        "company": "顶格",
        "township": "凤岗镇",
        "address": "广东省东莞市凤岗镇宏基五金工业园",
        "latitude": "22.730003",
        "longitude": "114.159737",
        "distance": "19.262"
    }, {
        "id": 150,
        "uuid": "fcbc9b26-8b7c-4a3a-84ee-5e16fc9398c1",
        "name": "易总",
        "phone": "13556856028",
        "company": "亚特丽尔",
        "township": "凤岗镇",
        "address": "广东省东莞市凤岗镇怡安西路28",
        "latitude": "22.691233",
        "longitude": "114.165237",
        "distance": "13.916"
    }, {
        "id": 151,
        "uuid": "91b687b3-22ce-4c3e-b3a3-a0be04c6f8e3",
        "name": "黄生",
        "phone": "13322985163",
        "company": "泰豪",
        "township": "平湖街道",
        "address": "广东省深圳市龙岗区平湖街道金城路33号B栋",
        "latitude": "22.690130",
        "longitude": "114.117470",
        "distance": "26.808"
    }, {
        "id": 152,
        "uuid": "f862c206-8350-459f-81b9-9f8526d6510b",
        "name": "纪生",
        "phone": "15920616633",
        "company": "利达",
        "township": "凤岗镇",
        "address": "广东省东莞市凤岗镇凤平路87号",
        "latitude": "22.728519",
        "longitude": "114.135010",
        "distance": "20.594"
    }, {
        "id": 153,
        "uuid": "9735a2e1-3dee-48f2-804f-5f9707b26a40",
        "name": "刘总",
        "phone": "13724290985",
        "company": "森大",
        "township": "横岗街道",
        "address": "广东省深圳市龙岗区横岗街道深圳同信塑料制品厂",
        "latitude": "22.617439",
        "longitude": "114.229806",
        "distance": "3.124"
    }, {
        "id": 154,
        "uuid": "05fb5492-68b0-485b-88cf-5f116a4b8570",
        "name": "贾小姐",
        "phone": "15302760663",
        "company": "美东",
        "township": "横岗街道",
        "address": "广东省深圳市龙岗区横岗街道惠盐中路嘉润综合楼",
        "latitude": "22.625637",
        "longitude": "114.220650",
        "distance": "2.739"
    }, {
        "id": 155,
        "uuid": "5006f695-2e38-45e7-a583-49f3d744fa75",
        "name": "陈生",
        "phone": "13725626932",
        "company": "中艺",
        "township": "黄江镇",
        "address": "广东省东莞市黄江镇东莞市旺顺建材有限公司",
        "latitude": "22.896034",
        "longitude": "114.035889",
        "distance": "59.757"
    }, {
        "id": 156,
        "uuid": "d5d4c920-9577-49c8-9948-feb7035f83f0",
        "name": "罗厂长",
        "phone": "13879695580",
        "company": "厨王",
        "township": "秋长街道",
        "address": "广东省惠州市惠阳区秋长街道新曾屋长富商业广场",
        "latitude": "22.798164",
        "longitude": "114.412872",
        "distance": "31.598"
    }, {
        "id": 157,
        "uuid": "e2c35624-802f-4e50-a49d-6a0996eb7aba",
        "name": "李明",
        "phone": "13923862994",
        "company": "创美家",
        "township": "秋长街道",
        "address": "广东省惠州市惠阳区秋长街道B61乡道展滔工业园",
        "latitude": "22.818359",
        "longitude": "114.406372",
        "distance": "38.438"
    }, {
        "id": 158,
        "uuid": "4fba88ce-a9c2-479d-aa27-e5b079c6c4a4",
        "name": "曾总",
        "phone": "13243813381",
        "company": "拓创",
        "township": "凤岗镇",
        "address": "广东省东莞市凤岗镇鸿海台和科技园东莞市骏铭汽车销售服务有限公司",
        "latitude": "22.713400",
        "longitude": "114.160461",
        "distance": "16.431"
    }, {
        "id": 159,
        "uuid": "61ca1c8f-8a1f-4c70-bf23-27c6545eebe1",
        "name": "钱总",
        "phone": "13631692152",
        "company": "尚美",
        "township": "横岗街道",
        "address": "广东省深圳市龙岗区横岗街道安华路62号深圳市良华工业区",
        "latitude": "22.635399",
        "longitude": "114.220337",
        "distance": "2.092"
    }, {
        "id": 160,
        "uuid": "45c48f5b-b192-4473-a0d1-aebf6574f014",
        "name": "刘敏",
        "phone": "18928447510",
        "company": "永强",
        "township": "龙岗街道",
        "address": "广东省深圳市龙岗区龙岗街道龙南路289号吓井一村",
        "latitude": "22.720779",
        "longitude": "114.282661",
        "distance": "16.620"
    }, {
        "id": 161,
        "uuid": "345f8e3e-4178-4c49-826c-396590b56802",
        "name": "沈生",
        "phone": "13670213243",
        "company": "佳景",
        "township": "坪山街道",
        "address": "广东省深圳市坪山区坪山街道江边路76号",
        "latitude": "22.683864",
        "longitude": "114.352510",
        "distance": "19.274"
    }, {
        "id": 163,
        "uuid": "8f47abda-e37e-4a72-82cc-a70272e921d8",
        "name": "杨",
        "phone": "13249880447",
        "company": "瑞丰",
        "township": "龙城街道",
        "address": "广东省深圳市龙岗区龙城街道创建路将军帽工业区",
        "latitude": "22.744827",
        "longitude": "114.226357",
        "distance": "16.738"
    }, {
        "id": 164,
        "uuid": "7b4b6d69-85b8-4e22-9c50-d49379c384c3",
        "name": "陈林",
        "phone": "13480734481",
        "company": "田鑫",
        "township": "新圩镇",
        "address": "广东省惠州市惠阳区新圩镇948乡道鑫来福商行",
        "latitude": "22.830950",
        "longitude": "114.250313",
        "distance": "29.454"
    }, {
        "id": 165,
        "uuid": "4ff19b4b-8fb9-463b-b6a6-159aa250c2b0",
        "name": "李海波",
        "phone": "13590195475",
        "company": "浩兴",
        "township": "新圩镇",
        "address": "广东省惠州市惠阳区新圩镇羊蹄坑",
        "latitude": "22.841279",
        "longitude": "114.368037",
        "distance": "40.438"
    }, {
        "id": 166,
        "uuid": "e1ec3168-5e32-4c72-bd71-973da3db130d",
        "name": "陈",
        "phone": "13760284644",
        "company": "名生",
        "township": "龙岗街道",
        "address": "广东省深圳市龙岗区龙岗街道龙平东路76人人购物广场(富德店)",
        "latitude": "22.730047",
        "longitude": "114.274559",
        "distance": "15.751"
    }, {
        "id": 167,
        "uuid": "25717279-a6d7-423d-a442-ccba8fd8a498",
        "name": "聂",
        "phone": "13537608179",
        "company": "德艺",
        "township": "观湖街道",
        "address": "广东省深圳市龙华区观湖街道龙华区观澜街道文峰学校观澜街道曙光幼儿园",
        "latitude": "22.698959",
        "longitude": "114.051819",
        "distance": "36.006"
    }, {
        "id": 168,
        "uuid": "7e25c289-639e-442e-8480-e4165a8441d3",
        "name": "王总",
        "phone": "13798576272",
        "company": "宏发",
        "township": "横岗街道",
        "address": "广东省深圳市龙岗区横岗街道横坪连接线",
        "latitude": "22.648920",
        "longitude": "114.235992",
        "distance": "3.721"
    }, {
        "id": 169,
        "uuid": "698e8a1d-c32c-454c-9d7b-9d99f8e29a66",
        "name": "廖生",
        "phone": "18823408373",
        "company": "威莱达",
        "township": "凤岗镇",
        "address": "广东省东莞市凤岗镇东深二路",
        "latitude": "22.770737",
        "longitude": "114.134224",
        "distance": "26.478"
    }, {
        "id": 170,
        "uuid": "31977104-d5ae-4425-a38b-7dbba8c2de08",
        "name": "杨总",
        "phone": "15112708566",
        "company": "丽中",
        "township": "园洲镇",
        "address": "广东省惠州市博罗县园洲镇科越织物品制品厂",
        "latitude": "23.128765",
        "longitude": "114.019424",
        "distance": "91.833"
    }, {
        "id": 171,
        "uuid": "1f2493b6-7cae-47d8-8a79-ab3d3654d210",
        "name": "黄生",
        "phone": "13005558986",
        "company": "优美家",
        "township": "平湖街道",
        "address": "广东省深圳市龙岗区平湖街道振兴路388工业区",
        "latitude": "22.660402",
        "longitude": "114.147118",
        "distance": "16.113"
    }, {
        "id": 172,
        "uuid": "7747b1d6-5a86-4059-b296-9c93feede88c",
        "name": "朱总",
        "phone": "13530423468",
        "company": "乐窝",
        "township": "坪地街道",
        "address": "广东省深圳市龙岗区坪地街道新丰路",
        "latitude": "22.765711",
        "longitude": "114.331902",
        "distance": "27.583"
    }, {
        "id": 173,
        "uuid": "958be2f1-7a41-488d-9795-f4b8e5868aef",
        "name": "李生",
        "phone": "18002926806",
        "company": "国创装饰",
        "township": "厚街镇",
        "address": "广东省东莞市厚街镇双岗上环沙头涌路漫图家居",
        "latitude": "22.912672",
        "longitude": "113.627090",
        "distance": "107.804"
    }, {
        "id": 174,
        "uuid": "4ce2c287-b507-4a30-95dc-5aa8ea01088a",
        "name": "谢总",
        "phone": "15099915876",
        "company": "鸿海",
        "township": "凤岗镇",
        "address": "广东省东莞市凤岗镇鸿海台和科技园东莞市骏铭汽车销售服务有限公司",
        "latitude": "22.713280",
        "longitude": "114.160583",
        "distance": "16.412"
    }, {
        "id": 175,
        "uuid": "6afd3082-f099-40ff-8d21-cb86d1c92a89",
        "name": "候生",
        "phone": "13316959689",
        "company": "超炫",
        "township": "龙岗街道",
        "address": "广东省深圳市龙岗区龙岗街道深圳富尼高家居用品有限公司劲光物业新生科技六园",
        "latitude": "22.748819",
        "longitude": "114.286514",
        "distance": "19.109"
    }, {
        "id": 176,
        "uuid": "80c6ac9b-d2fd-4242-b399-21f9d044c0b2",
        "name": "老板",
        "phone": "15338871372",
        "company": "实洁馨",
        "township": "横岗街道",
        "address": "广东省深圳市龙岗区横岗街道罗曼妮奥实业(深圳)有限公司安居园",
        "latitude": "22.628771",
        "longitude": "114.222771",
        "distance": "2.101"
    }, {
        "id": 177,
        "uuid": "033ac394-7ead-4f3f-a865-f7ab97ddb3a8",
        "name": "何生",
        "phone": "15816308465",
        "company": "港艺",
        "township": "新圩镇",
        "address": "广东省惠州市惠阳区新圩镇惠州市惠阳双新水泥有限公司",
        "latitude": "22.824770",
        "longitude": "114.329811",
        "distance": "29.147"
    }, {
        "id": 178,
        "uuid": "4dc1fd29-4238-4293-bbe0-4591a9de9613",
        "name": "刘",
        "phone": "13554718355",
        "company": "奇乐",
        "township": "西丽街道",
        "address": "广东省深圳市南山区西丽街道沁园路4055号B栋富记楼",
        "latitude": "22.615549",
        "longitude": "113.973801",
        "distance": "42.385"
    }, {
        "id": 179,
        "uuid": "fb545553-a078-4086-8663-f1e921345d65",
        "name": "叶总",
        "phone": "28658322___",
        "company": "志祥",
        "township": "秋长街道",
        "address": "广东省惠州市惠阳区秋长街道新润佳超市",
        "latitude": "22.780973",
        "longitude": "114.396790",
        "distance": "28.501"
    }, {
        "id": 180,
        "uuid": "d6639a0e-41da-45ec-bfa0-833b94932bb3",
        "name": "刘生",
        "phone": "15915366617",
        "company": "德莱宝",
        "township": "新圩镇",
        "address": "广东省惠州市惠阳区新圩镇逢威工业(惠阳)有限公司",
        "latitude": "22.824308",
        "longitude": "114.248154",
        "distance": "28.737"
    }, {
        "id": 181,
        "uuid": "4fc5ed4a-60b4-41c9-96dc-75e27e9969b0",
        "name": "荣森",
        "phone": "18029107088",
        "company": "荣生",
        "township": "秋长街道",
        "address": "广东省惠州市惠阳区秋长街道迎宾大道中翡翠工业园",
        "latitude": "22.812733",
        "longitude": "114.424020",
        "distance": "38.353"
    }, {
        "id": 182,
        "uuid": "ceaa5cf1-b76e-4da7-8180-835efd280192",
        "name": "王总",
        "phone": "15817223133",
        "company": "富丽豪",
        "township": "秋长街道",
        "address": "广东省惠州市惠阳区秋长街道惠阳佳箭",
        "latitude": "22.782560",
        "longitude": "114.385017",
        "distance": "27.869"
    }, {
        "id": 183,
        "uuid": "60a73163-6d9b-46c0-96ed-f78ca09e20e5",
        "name": "袁总",
        "phone": "13530228913",
        "company": "顺亿富",
        "township": "横岗街道",
        "address": "广东省深圳市龙岗区横岗街道大康路13号328工业区",
        "latitude": "22.645250",
        "longitude": "114.221083",
        "distance": "4.316"
    }, {
        "id": 184,
        "uuid": "13650b08-c32f-412a-8caf-74a00cf1db7b",
        "name": "巧",
        "phone": "18787262589",
        "company": "壹品居",
        "township": "西丽街道",
        "address": "广东省深圳市南山区西丽街道丽康商务大厦",
        "latitude": "22.630835",
        "longitude": "113.969513",
        "distance": "42.428"
    }, {
        "id": 185,
        "uuid": "90fa8090-92e8-4e9f-9c9b-0afe91d904f5",
        "name": "黄总",
        "phone": "13823336034",
        "company": "星源木业",
        "township": "龙岗街道",
        "address": "广东省深圳市龙岗区龙岗街道百富城(龙平东路)",
        "latitude": "22.739462",
        "longitude": "114.261139",
        "distance": "18.391"
    }, {
        "id": 186,
        "uuid": "a223d130-159d-4bd1-a9d3-91105bac2ba5",
        "name": "邹",
        "phone": "15768100868",
        "company": "金名豪",
        "township": "新圩镇",
        "address": "广东省惠州市惠阳区新圩镇金名豪家具有限公司",
        "latitude": "22.841163",
        "longitude": "114.370623",
        "distance": "40.599"
    }, {
        "id": 187,
        "uuid": "fa3cd1d0-20b5-4c91-8d85-f3284ec778f3",
        "name": "党生",
        "phone": "18329358366",
        "company": "百慕达",
        "township": "坪山街道",
        "address": "广东省深圳市坪山区坪山街道新和路128号",
        "latitude": "22.700171",
        "longitude": "114.333833",
        "distance": "17.406"
    }, {
        "id": 188,
        "uuid": "afcd91c6-1d02-4371-840f-65d33679d2c0",
        "name": "李小姐",
        "phone": "15019407306",
        "company": "依诗曼",
        "township": "龙城街道",
        "address": "广东省深圳市龙岗区龙城街道齐心路21",
        "latitude": "22.746174",
        "longitude": "114.239984",
        "distance": "16.745"
    }, {
        "id": 190,
        "uuid": "1cdbac89-cbaf-4621-9b6f-4bca1955ecce",
        "name": "罗师傅",
        "phone": "13692116356",
        "company": "天厨佳",
        "township": "新圩镇",
        "address": "广东省惠州市惠阳区新圩镇新鼎兴建材有限公司",
        "latitude": "22.832047",
        "longitude": "114.371322",
        "distance": "41.823"
    }, {
        "id": 191,
        "uuid": "bfc04ec1-431d-4e9a-a98f-ab2850a2c00b",
        "name": "雷总",
        "phone": "23281710___",
        "company": "恒德顺",
        "township": "坪山街道",
        "address": "广东省深圳市坪山区坪山街道顺兴旺家饰深圳华生创新包装股份有限公司",
        "latitude": "22.700310",
        "longitude": "114.332741",
        "distance": "17.303"
    }, {
        "id": 192,
        "uuid": "4da758ae-c6f8-4e31-bc46-52130884c852",
        "name": "彭生",
        "phone": "13924605168",
        "company": "福倈居",
        "township": "坪地街道",
        "address": "广东省深圳市龙岗区坪地街道盐龙大道",
        "latitude": "22.773228",
        "longitude": "114.284470",
        "distance": "22.421"
    }, {
        "id": 193,
        "uuid": "d5c87707-7de1-4847-bd22-84abb8c9ff74",
        "name": "谢总",
        "phone": "13823368078",
        "company": "友盛",
        "township": "新圩镇",
        "address": "广东省惠州市惠阳区新圩镇新光工业园",
        "latitude": "22.875496",
        "longitude": "114.333755",
        "distance": "43.169"
    }, {
        "id": 194,
        "uuid": "f076eba2-0ba9-48db-a59d-0653cb5719eb",
        "name": "陈小姐",
        "phone": "15914033959",
        "company": "皇之冠品",
        "township": "坪山街道",
        "address": "广东省深圳市坪山区坪山街道新屋路",
        "latitude": "22.675974",
        "longitude": "114.316017",
        "distance": "13.661"
    }, {
        "id": 195,
        "uuid": "c3d7e280-f50c-4d04-9917-c75b618022be",
        "name": "毛生",
        "phone": "18902830964",
        "company": "德欧经典",
        "township": "大岭山镇",
        "address": "广东省东莞市大岭山镇龟地二街",
        "latitude": "22.629801",
        "longitude": "113.971359",
        "distance": "42.341"
    }, {
        "id": 196,
        "uuid": "967ed455-b401-41a3-9ea1-69ea5b51b14f",
        "name": "唐总",
        "phone": "13724312771",
        "company": "红彤",
        "township": "塘厦镇",
        "address": "广东省东莞市塘厦镇东莞永成眼镜制造有限公司",
        "latitude": "22.760090",
        "longitude": "114.105865",
        "distance": "33.934"
    }, {
        "id": 197,
        "uuid": "c4bd214c-d3aa-46b1-b7b6-fc8f0f272f33",
        "name": "老板",
        "phone": "13691663936",
        "company": "飞仁达",
        "township": "新圩镇",
        "address": "广东省惠州市惠阳区新圩镇浩丰科技",
        "latitude": "22.873911",
        "longitude": "114.334572",
        "distance": "42.979"
    }, {
        "id": 198,
        "uuid": "2d39833c-86a9-4126-a691-c11d995640b6",
        "name": "可可",
        "phone": "13823273892",
        "company": "欧星创意",
        "township": "西丽街道",
        "address": "广东省深圳市南山区西丽街道深圳南山西丽创意工厂大磡二村",
        "latitude": "22.621449",
        "longitude": "113.981178",
        "distance": "40.565"
    }, {
        "id": 199,
        "uuid": "17f72264-2703-4819-8508-fab4b3ad1bb7",
        "name": "李总",
        "phone": "18925224967",
        "company": "全少爷",
        "township": "龙岗街道",
        "address": "广东省深圳市龙岗区龙岗街道新生六园劲光物业新生科技六园",
        "latitude": "22.748569",
        "longitude": "114.288101",
        "distance": "19.025"
    }, {
        "id": 200,
        "uuid": "560eb65e-767c-45cb-a3b1-5088eddeacea",
        "name": "廖生",
        "phone": "13823156915",
        "company": "绿牌",
        "township": "坪地街道",
        "address": "广东省深圳市龙岗区坪地街道老围路",
        "latitude": "22.787670",
        "longitude": "114.319672",
        "distance": "25.512"
    }, {
        "id": 202,
        "uuid": "ba29bd98-b4ad-4440-a0bc-20fa13215a4e",
        "name": "肖生",
        "phone": "18933575828",
        "company": "港惠",
        "township": "新圩镇",
        "address": "广东省惠州市惠阳区新圩镇屋长排",
        "latitude": "22.837419",
        "longitude": "114.368504",
        "distance": "41.102"
    }, {
        "id": 203,
        "uuid": "5e9feb49-3b0e-4097-89eb-bd4918d3de36",
        "name": "史",
        "phone": "13510308492",
        "company": "金创",
        "township": "布吉街道",
        "address": "广东省深圳市龙岗区布吉街道松源头小区松元头工业区",
        "latitude": "22.626724",
        "longitude": "114.119446",
        "distance": "15.585"
    }, {
        "id": 204,
        "uuid": "ae466986-8217-4916-bc15-1fe6decc9ea4",
        "name": "黄总",
        "phone": "13691986346",
        "company": "仙雅飞",
        "township": "秋长街道",
        "address": "广东省惠州市惠阳区秋长街道秋溪中路",
        "latitude": "22.822639",
        "longitude": "114.420461",
        "distance": "45.990"
    }, {
        "id": 205,
        "uuid": "46e24c04-b09a-4d44-9e5e-aa620d1679e4",
        "name": "赖总",
        "phone": "13902987775",
        "company": "富怡",
        "township": "新圩镇",
        "address": "广东省惠州市惠阳区新圩镇龙腾工业园",
        "latitude": "22.820061",
        "longitude": "114.334618",
        "distance": "29.043"
    }, {
        "id": 206,
        "uuid": "c1f847be-83d6-4374-9488-fb8d2017f2ba",
        "name": "候总",
        "phone": "18576483848",
        "company": "美佳",
        "township": "凤岗镇",
        "address": "广东省东莞市凤岗镇金城路79号",
        "latitude": "22.741932",
        "longitude": "114.173599",
        "distance": "20.118"
    }, {
        "id": 207,
        "uuid": "f6bb375e-3f1c-42eb-8d64-16eacc9af760",
        "name": "李生",
        "phone": "13927447448",
        "company": "鑫元",
        "township": "新圩镇",
        "address": "广东省惠州市惠阳区新圩镇浩天家具厂",
        "latitude": "22.819658",
        "longitude": "114.307124",
        "distance": "30.912"
    }, {
        "id": 208,
        "uuid": "c09b9f31-87f7-43f2-be1a-dfba1dd91ade",
        "name": "凌丹",
        "phone": "15112350921",
        "company": "维家",
        "township": "横岗街道",
        "address": "广东省深圳市龙岗区横岗街道环山路",
        "latitude": "22.646996",
        "longitude": "114.219215",
        "distance": "3.546"
    }, {
        "id": 209,
        "uuid": "b8df2bb9-22c9-4d09-86ce-ebf60fd0dcc5",
        "name": "郑总",
        "phone": "18923658168",
        "company": "鑫达",
        "township": "新圩镇",
        "address": "广东省惠州市惠阳区新圩镇富广源工业园",
        "latitude": "22.858946",
        "longitude": "114.326073",
        "distance": "42.233"
    }, {
        "id": 210,
        "uuid": "8a8e233f-52fc-493d-897c-4ba2cc593c16",
        "name": "金",
        "phone": "15338856855",
        "company": "海蓝之家",
        "township": "塘厦镇",
        "address": "广东省东莞市塘厦镇明珠街9号新力光科技工业园",
        "latitude": "22.738100",
        "longitude": "114.109169",
        "distance": "29.774"
    }, {
        "id": 211,
        "uuid": "041445d9-a1fa-4d88-9beb-e17df06d7441",
        "name": "黄",
        "phone": "13530274790",
        "company": "金御",
        "township": "秋长街道",
        "address": "广东省惠州市惠阳区秋长街道秋宝路34",
        "latitude": "22.804256",
        "longitude": "114.417870",
        "distance": "31.752"
    }, {
        "id": 212,
        "uuid": "71a98ad0-6025-48bc-bae7-f47e1980b2b8",
        "name": "魏总",
        "phone": "18898732246",
        "company": "和顺",
        "township": "秋长街道",
        "address": "广东省惠州市惠阳区秋长街道惠州市义恒轩(白石)工业园",
        "latitude": "22.773836",
        "longitude": "114.381342",
        "distance": "27.006"
    }, {
        "id": 213,
        "uuid": "30fa7a4d-884d-4b02-aa5d-ecd223b8dd82",
        "name": "梁总",
        "phone": "13692130953",
        "company": "美佳乐",
        "township": "横岗街道",
        "address": "广东省深圳市龙岗区横岗街道安华路62号深圳市良华工业区",
        "latitude": "22.635399",
        "longitude": "114.220337",
        "distance": "2.092"
    }, {
        "id": 214,
        "uuid": "9167d15d-b15e-4f20-a5a7-3e6cd916b598",
        "name": "张总",
        "phone": "13823232768",
        "company": "圆角",
        "township": "横岗街道",
        "address": "广东省深圳市龙岗区横岗街道广达路28号A2栋鸿景生(煜昌)工业园",
        "latitude": "22.657253",
        "longitude": "114.211212",
        "distance": "5.426"
    }, {
        "id": 215,
        "uuid": "59ee0b26-f56f-4d67-84f2-9b59d5260215",
        "name": "余总",
        "phone": "18144601813",
        "company": "鸿景",
        "township": "新圩镇",
        "address": "广东省惠州市惠阳区新圩镇柏兴工艺",
        "latitude": "22.841597",
        "longitude": "114.259743",
        "distance": "31.163"
    }, {
        "id": 216,
        "uuid": "cd0685d5-a4ec-414f-bb0f-93a7b2d36889",
        "name": "毛生",
        "phone": "17722943160",
        "company": "致鑫",
        "township": "水口街道",
        "address": "广东省惠州市惠城区水口街道老虎岭路惠州市康蕾幼儿园",
        "latitude": "23.106180",
        "longitude": "114.454094",
        "distance": "76.273"
    }, {
        "id": 217,
        "uuid": "d68f9f56-9ca6-4998-813d-aaa975593f1c",
        "name": "郭生",
        "phone": "13828722585",
        "company": "概念",
        "township": "横岗街道",
        "address": "广东省深圳市龙岗区横岗街道环山路",
        "latitude": "22.646914",
        "longitude": "114.224777",
        "distance": "3.017"
    }, {
        "id": 218,
        "uuid": "0216bd74-983e-4e28-9694-89a221dd4fcd",
        "name": "熊学兵",
        "phone": "13530757574",
        "company": "博安",
        "township": "秋长街道",
        "address": "广东省惠州市惠阳区秋长街道金钰鑫创意兴业园",
        "latitude": "22.772682",
        "longitude": "114.377907",
        "distance": "27.436"
    }, {
        "id": 219,
        "uuid": "9e67b623-9702-4f8e-980c-eb4ab517ba11",
        "name": "杨总",
        "phone": "18927468442",
        "company": "欧雅富",
        "township": "西丽街道",
        "address": "广东省深圳市南山区西丽街道丽康商务大厦羊台山森林公园",
        "latitude": "22.630472",
        "longitude": "113.969101",
        "distance": "42.445"
    }, {
        "id": 220,
        "uuid": "27a4ae46-4868-4daa-9c15-79503c67563c",
        "name": "小邓",
        "phone": "18273607106",
        "company": "铭饰",
        "township": "凤岗镇",
        "address": "广东省东莞市凤岗镇狮岭东路18号",
        "latitude": "22.746111",
        "longitude": "114.151932",
        "distance": "23.050"
    }, {
        "id": 221,
        "uuid": "1f6533eb-1b28-4928-ab87-cb0a5826580d",
        "name": "卓越",
        "phone": "13148873189",
        "company": "卓越世家",
        "township": "西丽街道",
        "address": "广东省深圳市南山区西丽街道工业一路18号",
        "latitude": "22.619459",
        "longitude": "113.977882",
        "distance": "41.456"
    }, {
        "id": 222,
        "uuid": "59704bee-afdc-4e67-88b5-c9fc1aa5b662",
        "name": "黄总",
        "phone": "15915311176",
        "company": "兄弟",
        "township": "新圩镇",
        "address": "广东省惠州市惠阳区新圩镇大岭下桥",
        "latitude": "22.854276",
        "longitude": "114.342628",
        "distance": "40.315"
    }, {
        "id": 223,
        "uuid": "3e2bb207-11bb-4016-b280-bb8c997c0e21",
        "name": "花儿",
        "phone": "15099905722",
        "company": "优雅尚品",
        "township": "凤岗镇",
        "address": "广东省东莞市凤岗镇东莞新华工业城",
        "latitude": "22.715452",
        "longitude": "114.144600",
        "distance": "18.079"
    }, {
        "id": 224,
        "uuid": "85b70f11-4982-4f4d-b423-69aecc0c55ee",
        "name": "张总",
        "phone": "13538024028",
        "company": "美昌",
        "township": "龙岗街道",
        "address": "广东省深圳市龙岗区龙岗街道吓坑路170",
        "latitude": "22.731260",
        "longitude": "114.321388",
        "distance": "21.650"
    }, {
        "id": 225,
        "uuid": "2d47708b-f794-44f9-9d60-0a8e84cd9886",
        "name": "李生",
        "phone": "15889290774",
        "company": "荣耀",
        "township": "观澜街道",
        "address": "广东省深圳市龙华区观澜街道环观南路24号",
        "latitude": "22.721832",
        "longitude": "114.101471",
        "distance": "27.370"
    }, {
        "id": 226,
        "uuid": "2bc77a13-4ccf-4eb7-a5eb-81b52c7ae597",
        "name": "袁总",
        "phone": "13622374108",
        "company": "天泽哥",
        "township": "新圩镇",
        "address": "广东省惠州市惠阳区新圩镇新村",
        "latitude": "22.824629",
        "longitude": "114.367273",
        "distance": "42.324"
    }, {
        "id": 227,
        "uuid": "680e7a3c-818d-472b-80be-3c2e55207410",
        "name": "良子",
        "phone": "13410065137",
        "company": "家鑫源",
        "township": "龙城街道",
        "address": "广东省深圳市龙岗区龙城街道朱古石路42号万科·清林径",
        "latitude": "22.751410",
        "longitude": "114.228233",
        "distance": "17.148"
    }, {
        "id": 228,
        "uuid": "62d34f2f-6bd6-4f19-8bb1-bb258382e45c",
        "name": "钟生",
        "phone": "13684954682",
        "company": "典雅",
        "township": "新圩镇",
        "address": "广东省惠州市惠阳区新圩镇联利五金塑胶制品有限公司",
        "latitude": "22.798852",
        "longitude": "114.270578",
        "distance": "26.191"
    }, {
        "id": 229,
        "uuid": "cf4f2b53-ab8f-43de-a874-a3578c32bc1d",
        "name": "戴生",
        "phone": "18198455815",
        "company": "振辉",
        "township": "新圩镇",
        "address": "广东省惠州市惠阳区新圩镇联利五金塑胶制品有限公司",
        "latitude": "22.799076",
        "longitude": "114.270943",
        "distance": "26.099"
    }, {
        "id": 230,
        "uuid": "87efffce-73fe-4281-90f5-9b2986d48c0f",
        "name": "吴总",
        "phone": "15077748866",
        "company": "家厨邦",
        "township": "新圩镇",
        "address": "广东省惠州市惠阳区新圩镇B01乡道",
        "latitude": "22.824680",
        "longitude": "114.313721",
        "distance": "32.898"
    }, {
        "id": 231,
        "uuid": "96bf92b2-e587-49ba-901b-c8cdb6962922",
        "name": "陈总",
        "phone": "13392031266",
        "company": "协诚",
        "township": "新圩镇",
        "address": "广东省惠州市惠阳区新圩镇青草湖工业园",
        "latitude": "22.851936",
        "longitude": "114.276520",
        "distance": "41.421"
    }, {
        "id": 232,
        "uuid": "ee80b5f9-ee0d-4921-ab23-c6903927ecf9",
        "name": "袁总",
        "phone": "13927456983",
        "company": "联德",
        "township": "新圩镇",
        "address": "广东省惠州市惠阳区新圩镇惠州市产华工业园",
        "latitude": "22.819806",
        "longitude": "114.337187",
        "distance": "29.343"
    }, {
        "id": 233,
        "uuid": "bf476abd-9bf8-4bb6-a423-83334d2968b6",
        "name": "何总",
        "phone": "18218417709",
        "company": "迪贝斯",
        "township": "新圩镇",
        "address": "广东省惠州市惠阳区新圩镇惠州市产华工业园",
        "latitude": "22.819806",
        "longitude": "114.337187",
        "distance": "29.238"
    }, {
        "id": 234,
        "uuid": "75ce1343-404f-482a-b74b-8bf229229827",
        "name": "李桂珠",
        "phone": "13632817331",
        "company": "好佳居",
        "township": "新圩镇",
        "address": "广东省惠州市惠阳区新圩镇中兴工业园",
        "latitude": "22.828331",
        "longitude": "114.333992",
        "distance": "29.482"
    }, {
        "id": 235,
        "uuid": "c554badd-6ed8-4227-a445-a5bd59efd82d",
        "name": "汪生",
        "phone": "18675568075",
        "company": "惠深源",
        "township": "新圩镇",
        "address": "广东省惠州市惠阳区新圩镇河塘",
        "latitude": "22.843571",
        "longitude": "114.330384",
        "distance": "30.819"
    }, {
        "id": 236,
        "uuid": "0d0e222e-5944-4a58-a41b-605820a836d8",
        "name": "伍小姐",
        "phone": "13725573286",
        "company": "木世家",
        "township": "新圩镇",
        "address": "广东省惠州市惠阳区新圩镇新村",
        "latitude": "22.824400",
        "longitude": "114.367882",
        "distance": "42.291"
    }, {
        "id": 237,
        "uuid": "8856502f-8250-4697-ab53-29993754f938",
        "name": "陈生",
        "phone": "13642360127",
        "company": "广发",
        "township": "秋长街道",
        "address": "广东省惠州市惠阳区秋长街道金凯源家居材料制品厂柯氏工业园",
        "latitude": "22.815384",
        "longitude": "114.422302",
        "distance": "33.024"
    }, {
        "id": 238,
        "uuid": "08a33af6-a8b6-4bd5-8088-a1f6e68a79b0",
        "name": "戴总",
        "phone": "13510982011",
        "company": "闳雅",
        "township": "秋长街道",
        "address": "广东省惠州市惠阳区秋长街道秋宝路22",
        "latitude": "22.807052",
        "longitude": "114.420256",
        "distance": "39.075"
    }, {
        "id": 239,
        "uuid": "aef6a0c4-5362-49bc-9bd0-7886c0c49db9",
        "name": "王荣章",
        "phone": "18029107088",
        "company": "荣森",
        "township": "秋长街道",
        "address": "广东省惠州市惠阳区秋长街道迎宾大道中翡翠工业园",
        "latitude": "22.812733",
        "longitude": "114.424020",
        "distance": "32.620"
    }, {
        "id": 240,
        "uuid": "f76d8a54-3b1e-4972-aebc-fcd039939e1f",
        "name": "余总",
        "phone": "18948552055",
        "company": "尚好",
        "township": "秋长街道",
        "address": "广东省惠州市惠阳区秋长街道伯爵美墅",
        "latitude": "22.792271",
        "longitude": "114.409943",
        "distance": "30.190"
    }, {
        "id": 241,
        "uuid": "48976297-98b6-4b17-b6c0-7bd0148f8b13",
        "name": "贺总",
        "phone": "13692256378",
        "company": "泰鑫",
        "township": "秋长街道",
        "address": "广东省惠州市惠阳区秋长街道鑫盛",
        "latitude": "22.785465",
        "longitude": "114.401123",
        "distance": "28.893"
    }, {
        "id": 242,
        "uuid": "1669895c-f506-4aaf-9b11-a31a6c410532",
        "name": "邓小姐",
        "phone": "18926595371",
        "company": "邦爵",
        "township": "秋长街道",
        "address": "广东省惠州市惠阳区秋长街道惠州市义恒轩(白石)工业园",
        "latitude": "22.773034",
        "longitude": "114.380361",
        "distance": "27.142"
    }, {
        "id": 244,
        "uuid": "d915761c-02c8-4654-a5b9-39993952f10a",
        "name": "熊小姐",
        "phone": "13510216403",
        "company": "创雅新",
        "township": "横岗街道",
        "address": "广东省深圳市龙岗区横岗街道大康路13号328工业区",
        "latitude": "22.645631",
        "longitude": "114.221328",
        "distance": "4.261"
    }, {
        "id": 245,
        "uuid": "81570e09-a05c-4bdd-99c4-6555af7147e9",
        "name": "赵姐",
        "phone": "13510618085",
        "company": "金雅丽",
        "township": "横岗街道",
        "address": "广东省深圳市龙岗区横岗街道山子下路357",
        "latitude": "22.642651",
        "longitude": "114.229179",
        "distance": "2.445"
    }, {
        "id": 246,
        "uuid": "8d41f5d7-15c3-4721-9016-2bcd8acc951d",
        "name": "赵总",
        "phone": "13715206872",
        "company": "鑫格林",
        "township": "横岗街道",
        "address": "广东省深圳市龙岗区横岗街道罗曼妮奥实业(深圳)有限公司安居园",
        "latitude": "22.628756",
        "longitude": "114.222771",
        "distance": "1.928"
    }, {
        "id": 247,
        "uuid": "dd662b29-9d0a-44f1-a18f-62303200e68e",
        "name": "小杨",
        "phone": "13724215235",
        "company": "致诚",
        "township": "横岗街道",
        "address": "广东省深圳市龙岗区横岗街道深圳市晟源照明科技有限公司",
        "latitude": "22.646297",
        "longitude": "114.248299",
        "distance": "3.301"
    }, {
        "id": 248,
        "uuid": "7c7f39f7-39c3-4ac4-b748-98e1adae8ee3",
        "name": "邱总",
        "phone": "13417340408",
        "company": "胜发",
        "township": "平湖街道",
        "address": "广东省深圳市龙岗区平湖街道天鹅路218号",
        "latitude": "22.675310",
        "longitude": "114.159248",
        "distance": "16.230"
    }, {
        "id": 249,
        "uuid": "a41c65b4-19eb-4dd7-93b9-43e49bff449f",
        "name": "欧朋",
        "phone": "17382121618",
        "company": "精度",
        "township": "横岗街道",
        "address": "广东省深圳市龙岗区横岗街道安居路安居园",
        "latitude": "22.628250",
        "longitude": "114.222588",
        "distance": "1.997"
    }, {
        "id": 250,
        "uuid": "604022df-9cf4-4cb1-9fcf-2149f1e44426",
        "name": "郑总",
        "phone": "15889358750",
        "company": "超越",
        "township": "横岗街道",
        "address": "广东省深圳市龙岗区横岗街道惠盐中路嘉润综合楼",
        "latitude": "22.625637",
        "longitude": "114.220650",
        "distance": "2.739"
    }, {
        "id": 251,
        "uuid": "ae253c53-3799-4b4f-8349-f0310e2ca4dd",
        "name": "阿丰",
        "phone": "17773603239",
        "company": "豪泰",
        "township": "坪山街道",
        "address": "广东省深圳市坪山区坪山街道金碧路342号金淙淳工业园",
        "latitude": "22.675618",
        "longitude": "114.304034",
        "distance": "11.992"
    }, {
        "id": 252,
        "uuid": "12642f1f-cb32-4cac-b6bd-34e4ee028785",
        "name": "张生",
        "phone": "18244973283",
        "company": "升康",
        "township": "石岩街道",
        "address": "广东省深圳市宝安区石岩街道松白路2168号创成电子大厦",
        "latitude": "22.662029",
        "longitude": "113.926422",
        "distance": "44.257"
    }, {
        "id": 253,
        "uuid": "e7e1d261-ebd4-41c9-a66a-de5c0360bbec",
        "name": "齐利平",
        "phone": "13352933167",
        "company": "利平",
        "township": "西丽街道",
        "address": "广东省深圳市南山区西丽街道榆峰工业园",
        "latitude": "22.639160",
        "longitude": "113.938412",
        "distance": "47.767"
    }, {
        "id": 254,
        "uuid": "92a6d334-e990-4806-8ea3-92cd56ea01b4",
        "name": "杨总",
        "phone": "13603075778",
        "company": "和谐美",
        "township": "龙岗街道",
        "address": "广东省深圳市龙岗区龙岗街道吉鹏硅氟",
        "latitude": "22.731873",
        "longitude": "114.309792",
        "distance": "18.532"
    }, {
        "id": 255,
        "uuid": "b591c5d5-d073-419c-8741-89be6e1c8704",
        "name": "小柴",
        "phone": "18565705691",
        "company": "新思创",
        "township": "大亚湾西区街道",
        "address": "广东省惠州市惠阳区大亚湾西区街道石化大道西99板嶂岭森林公园",
        "latitude": "22.739080",
        "longitude": "114.459365",
        "distance": "36.733"
    }, {
        "id": 256,
        "uuid": "a35ed887-4ab8-4567-845c-854f28e77bde",
        "name": "朱小姐",
        "phone": "18575591523",
        "company": "欧曼发",
        "township": "横岗街道",
        "address": "广东省深圳市龙岗区横岗街道大王路7巷",
        "latitude": "22.639481",
        "longitude": "114.221848",
        "distance": "2.008"
    }, {
        "id": 257,
        "uuid": "87f44bc7-1648-4668-b65a-96a8600c2f80",
        "name": "吉大姐",
        "phone": "13714565361",
        "company": "鹏顺",
        "township": "横岗街道",
        "address": "广东省深圳市龙岗区横岗街道安兴路44-1号",
        "latitude": "22.635654",
        "longitude": "114.225426",
        "distance": "1.825"
    }, {
        "id": 258,
        "uuid": "6c623ca7-6f54-437c-9df6-8189d2aa5b41",
        "name": "赵总",
        "phone": "13537671806",
        "company": "金特",
        "township": "横岗街道",
        "address": "广东省深圳市龙岗区横岗街道安兴路96号卡蔓商务酒店",
        "latitude": "22.636274",
        "longitude": "114.227272",
        "distance": "1.279"
    }, {
        "id": 259,
        "uuid": "778f5944-d6e2-42a3-9731-2a0652d7595f",
        "name": "朱总",
        "phone": "13332931076",
        "company": "吉泰",
        "township": "凤岗镇",
        "address": "广东省东莞市凤岗镇东莞市安佳第三科技园",
        "latitude": "22.721531",
        "longitude": "114.132538",
        "distance": "18.606"
    }, {
        "id": 260,
        "uuid": "bf2cb7b2-a3d0-4395-baa8-e9989295b5e5",
        "name": "全总",
        "phone": "13798201225",
        "company": "鑫乐美",
        "township": "横岗街道",
        "address": "广东省深圳市龙岗区横岗街道四联路444",
        "latitude": "22.656330",
        "longitude": "114.187561",
        "distance": "7.242"
    }, {
        "id": 261,
        "uuid": "322e7b63-ee8f-4c9c-aeed-b252e2570264",
        "name": "晓旭",
        "phone": "15019476968",
        "company": "逸嘉之居",
        "township": "凤岗镇",
        "address": "广东省东莞市凤岗镇凤芝美工业园",
        "latitude": "22.752098",
        "longitude": "114.169586",
        "distance": "21.924"
    }, {
        "id": 262,
        "uuid": "fcb41cad-b165-4958-a8e8-3031a9622d8a",
        "name": "戚小姐",
        "phone": "15976882100",
        "company": "多美",
        "township": "横岗街道",
        "address": "广东省深圳市龙岗区横岗街道百达街4号黄升发工业区",
        "latitude": "22.614201",
        "longitude": "114.226677",
        "distance": "3.439"
    }, {
        "id": 263,
        "uuid": "a1d2602a-78d4-4735-8d83-47aabb00d393",
        "name": "王总",
        "phone": "13823594396",
        "company": "友邦",
        "township": "凤岗镇",
        "address": "广东省东莞市凤岗镇五联工业路9号",
        "latitude": "22.723623",
        "longitude": "114.129036",
        "distance": "18.944"
    }, {
        "id": 264,
        "uuid": "8af7a7bc-5965-4057-971a-eec30ffe9d26",
        "name": "李总",
        "phone": "18820212868",
        "company": "厨家",
        "township": "凤岗镇",
        "address": "广东省东莞市凤岗镇广隆驾校训练基地凤芝美工业园",
        "latitude": "22.752394",
        "longitude": "114.169540",
        "distance": "21.890"
    }, {
        "id": 265,
        "uuid": "08337215-b67e-48d5-a608-c4e50e267bb3",
        "name": "陈总",
        "phone": "15920031122",
        "company": "尼歌",
        "township": "横岗街道",
        "address": "广东省深圳市龙岗区横岗街道金源一路鸿丰泰科技园",
        "latitude": "22.680113",
        "longitude": "114.230293",
        "distance": "7.869"
    }, {
        "id": 266,
        "uuid": "1482c997-2604-495c-bae2-9b4a0e013474",
        "name": "李总",
        "phone": "28646582___",
        "company": "唯镁",
        "township": "横岗街道",
        "address": "广东省深圳市龙岗区横岗街道际航机械",
        "latitude": "22.658173",
        "longitude": "114.193207",
        "distance": "6.807"
    }, {
        "id": 267,
        "uuid": "b6d41519-edca-4bbc-8683-3bc5335a8089",
        "name": "吴总",
        "phone": "18718571895",
        "company": "优安",
        "township": "凤岗镇",
        "address": "广东省东莞市凤岗镇广隆驾校训练基地凤芝美工业园",
        "latitude": "22.752433",
        "longitude": "114.169631",
        "distance": "21.881"
    }, {
        "id": 268,
        "uuid": "db899afe-efce-4831-908a-7018c8424b5b",
        "name": "何总",
        "phone": "13714929025",
        "company": "名州",
        "township": "凤岗镇",
        "address": "广东省东莞市凤岗镇广隆驾校训练基地凤芝美工业园",
        "latitude": "22.752433",
        "longitude": "114.169631",
        "distance": "21.881"
    }, {
        "id": 269,
        "uuid": "a5d732b4-e0ce-43e2-b6ff-2705ff373318",
        "name": "陈小姐",
        "phone": "13714317017",
        "company": "森证",
        "township": "横岗街道",
        "address": "广东省深圳市龙岗区横岗街道梧岗四巷9号",
        "latitude": "22.611485",
        "longitude": "114.220490",
        "distance": "3.798"
    }, {
        "id": 270,
        "uuid": "7a39a3e3-84ca-4fd3-b445-6b2ce7ae3b9c",
        "name": "刘生",
        "phone": "18938545260",
        "company": "优品格",
        "township": "凤岗镇",
        "address": "广东省东莞市凤岗镇广安五金制品厂",
        "latitude": "22.699526",
        "longitude": "114.164680",
        "distance": "13.633"
    }, {
        "id": 271,
        "uuid": "9e66cb92-faad-442f-807e-1535fffb221c",
        "name": "林海",
        "phone": "13380369950",
        "company": "爱尚",
        "township": "凤岗镇",
        "address": "广东省东莞市凤岗镇长盛路3号",
        "latitude": "22.740986",
        "longitude": "114.115784",
        "distance": "24.342"
    }, {
        "id": 272,
        "uuid": "fe86642e-a4df-4732-9f50-55c924ec06c3",
        "name": "吴总",
        "phone": "13723736441",
        "company": "中迪",
        "township": "西丽街道",
        "address": "广东省深圳市南山区西丽街道王京坑工业园",
        "latitude": "22.631948",
        "longitude": "113.970278",
        "distance": "42.475"
    }, {
        "id": 273,
        "uuid": "91d6b0bb-f2ef-4ba9-8a33-c95abef8b517",
        "name": "陈生",
        "phone": "89362369___",
        "company": "康家",
        "township": "龙岗街道",
        "address": "广东省深圳市龙岗区龙岗街道G15沈海高速",
        "latitude": "22.707350",
        "longitude": "114.276741",
        "distance": "13.632"
    }, {
        "id": 274,
        "uuid": "503ccb54-11ba-4dfb-a71c-e7d527a38918",
        "name": "老板",
        "phone": "18926077922",
        "company": "柏凯",
        "township": "石岩街道",
        "address": "广东省深圳市宝安区石岩街道石岩街道计划生育服务大楼",
        "latitude": "22.671516",
        "longitude": "113.929555",
        "distance": "45.470"
    }, {
        "id": 275,
        "uuid": "551bd738-94a3-4a63-be1b-dda9f926629c",
        "name": "黄总",
        "phone": "13902436565",
        "company": "中鹏",
        "township": "新圩镇",
        "address": "广东省惠州市惠阳区新圩镇205国道茂森工业园",
        "latitude": "22.858030",
        "longitude": "114.328422",
        "distance": "40.904"
    }, {
        "id": 276,
        "uuid": "3ea1d127-374a-4398-9082-5f0f0f548013",
        "name": "刘生",
        "phone": "13534139520",
        "company": "海瑞雅格",
        "township": "坂田街道",
        "address": "广东省深圳市龙岗区坂田街道吉华路499号A栋吉通工业区",
        "latitude": "22.641586",
        "longitude": "114.076286",
        "distance": "23.663"
    }, {
        "id": 278,
        "uuid": "9fd07409-3cfe-455d-b1c7-6957c2c3e43f",
        "name": "老板",
        "phone": "17875863710",
        "company": "海盛",
        "township": "布吉街道",
        "address": "广东省深圳市龙岗区布吉街道吉华路280号恒通工业城",
        "latitude": "22.631653",
        "longitude": "114.101662",
        "distance": "20.278"
    }, {
        "id": 279,
        "uuid": "807e6411-5486-4800-901c-140dc3669469",
        "name": "戴老板",
        "phone": "13428790446",
        "company": "厨之轩",
        "township": "南湾街道",
        "address": "广东省深圳市龙岗区南湾街道简竹路合益园",
        "latitude": "22.626324",
        "longitude": "114.166557",
        "distance": "10.706"
    }, {
        "id": 280,
        "uuid": "5e513c21-aa64-41dd-85d5-c33d50f62640",
        "name": "王小姐",
        "phone": "13554871968",
        "company": "好太太",
        "township": "西丽街道",
        "address": "广东省深圳市南山区西丽街道王京坑路80号",
        "latitude": "22.624531",
        "longitude": "113.973984",
        "distance": "42.287"
    }, {
        "id": 281,
        "uuid": "d6532eae-24b7-49a9-9f7d-f85c6fd4c303",
        "name": "夏小姐",
        "phone": "13632692725",
        "company": "艺美",
        "township": "西丽街道",
        "address": "广东省深圳市南山区西丽街道工业一路32",
        "latitude": "22.621260",
        "longitude": "113.980652",
        "distance": "40.656"
    }, {
        "id": 282,
        "uuid": "71641178-a432-4ced-b744-51d8c67056f5",
        "name": "李强华",
        "phone": "18124569347",
        "company": "维格纳",
        "township": "凤岗镇",
        "address": "广东省东莞市凤岗镇凤翔路209",
        "latitude": "22.740709",
        "longitude": "114.172493",
        "distance": "19.760"
    }, {
        "id": 283,
        "uuid": "42beecf7-62e7-4282-8c6a-ac81a99cec71",
        "name": "老板",
        "phone": "15889290774",
        "company": "荣耀",
        "township": "观澜街道",
        "address": "广东省深圳市龙华区观澜街道环观南路24号",
        "latitude": "22.721832",
        "longitude": "114.101471",
        "distance": "29.805"
    }, {
        "id": 284,
        "uuid": "7a568fa2-72be-42c5-975c-98339486acec",
        "name": "宋生",
        "phone": "13510600993",
        "company": "益卡思",
        "township": "龙岗街道",
        "address": "广东省深圳市龙岗区龙岗街道深圳富尼高家居用品有限公司劲光物业新生科技六园",
        "latitude": "22.749033",
        "longitude": "114.287361",
        "distance": "19.022"
    }, {
        "id": 285,
        "uuid": "d66c4088-7623-4c52-a9eb-1846fd5da9fc",
        "name": "黄小姐",
        "phone": "13828806329",
        "company": "怡发",
        "township": "坪山街道",
        "address": "广东省深圳市坪山区坪山街道江边路72号",
        "latitude": "22.682911",
        "longitude": "114.352989",
        "distance": "19.080"
    }, {
        "id": 286,
        "uuid": "7004a609-5793-48f3-b572-1e9133eda149",
        "name": "刘生",
        "phone": "18038044356",
        "company": "金睿",
        "township": "凤岗镇",
        "address": "广东省东莞市凤岗镇东深公路",
        "latitude": "22.682184",
        "longitude": "114.164719",
        "distance": "12.562"
    }, {
        "id": 287,
        "uuid": "91346fc7-60c3-4fcf-ab64-2c0afa861283",
        "name": "于春阳",
        "phone": "13538090265",
        "company": "意阖家居",
        "township": "平湖街道",
        "address": "广东省深圳市龙岗区平湖街道兴达路15号",
        "latitude": "22.672899",
        "longitude": "114.158737",
        "distance": "13.283"
    }, {
        "id": 288,
        "uuid": "865814b3-89b5-4deb-b9a7-2ab4bb210634",
        "name": "邓小姐",
        "phone": "13542324428",
        "company": "皇家风情",
        "township": "沙井街道",
        "address": "广东省深圳市宝安区沙井街道黄埔路124",
        "latitude": "22.708704",
        "longitude": "113.836382",
        "distance": "64.834"
    }, {
        "id": 289,
        "uuid": "ff445a0a-1e95-4431-9bfe-c8c5ae9c62cb",
        "name": "陈总",
        "phone": "13622358389",
        "company": "鹏辉发",
        "township": "平湖街道",
        "address": "广东省深圳市龙岗区平湖街道富康路",
        "latitude": "22.688269",
        "longitude": "114.103981",
        "distance": "25.622"
    }, {
        "id": 290,
        "uuid": "7d26f8ae-9253-4ded-a737-bfc32062df0b",
        "name": "谭小姐",
        "phone": "13480793626",
        "company": "浩连",
        "township": "新圩镇",
        "address": "广东省惠州市惠阳区新圩镇847乡道",
        "latitude": "22.842153",
        "longitude": "114.365966",
        "distance": "39.115"
    }, {
        "id": 291,
        "uuid": "c354e3a7-0349-4c63-91d4-9eb1de1094f3",
        "name": "老板",
        "phone": "13302270052",
        "company": "盛汇城",
        "township": "龙城街道",
        "address": "广东省深圳市龙岗区龙城街道新陂路43号建新村(龙翔大道)",
        "latitude": "22.695837",
        "longitude": "114.225388",
        "distance": "10.320"
    }, {
        "id": 292,
        "uuid": "256bf853-fedd-4d58-b4b3-fbc2ccb94aa3",
        "name": "何总",
        "phone": "18219060094",
        "company": "蘑菇云装饰",
        "township": "松岗街道",
        "address": "广东省深圳市宝安区松岗街道居乐苑集信大厦",
        "latitude": "22.765859",
        "longitude": "113.852272",
        "distance": "61.257"
    }, {
        "id": 293,
        "uuid": "d310fba0-702e-4b65-83c1-0c2f729f6363",
        "name": "邓",
        "phone": "18620345596",
        "company": "家辉",
        "township": "黄江镇",
        "address": "广东省东莞市黄江镇变舍龙家具",
        "latitude": "22.826473",
        "longitude": "113.970970",
        "distance": "57.143"
    }, {
        "id": 294,
        "uuid": "db74e8ff-d78e-406d-8adc-abe5f6458400",
        "name": "彭生",
        "phone": "15007998283",
        "company": "康源",
        "township": "新圩镇",
        "address": "广东省惠州市惠阳区新圩镇新扬伞骨五金制品厂",
        "latitude": "22.861069",
        "longitude": "114.329681",
        "distance": "40.622"
    }, {
        "id": 295,
        "uuid": "8f68f972-df46-4ccf-8913-607866755cf6",
        "name": "彭总",
        "phone": "15007998283",
        "company": "星源",
        "township": "沙田镇",
        "address": "广东省惠州市惠阳区沙田镇惠兴粮油百货长龙岗工业区",
        "latitude": "22.844531",
        "longitude": "114.526978",
        "distance": "46.136"
    }, {
        "id": 296,
        "uuid": "4be384ea-d2ee-48f5-b7ad-44a4a52103c9",
        "name": "老板",
        "phone": "18038028965",
        "company": "美斯莱",
        "township": "笋岗街道",
        "address": "广东省深圳市罗湖区笋岗街道田贝北院小区田贝花园",
        "latitude": "22.563391",
        "longitude": "114.121819",
        "distance": "19.681"
    }, {
        "id": 297,
        "uuid": "c0734bc7-4a50-40ec-8fa7-99f10bd924fb",
        "name": "李总",
        "phone": "13410276272",
        "company": "皇冠",
        "township": "坪山街道",
        "address": "广东省深圳市坪山区坪山街道龙勤路31号",
        "latitude": "22.676414",
        "longitude": "114.316347",
        "distance": "13.713"
    }, {
        "id": 298,
        "uuid": "dfa0c5c4-ee7a-49ca-88c7-b5659398d2f6",
        "name": "莫小姐",
        "phone": "18165783865",
        "company": "美奇",
        "township": "龙岗街道",
        "address": "广东省深圳市龙岗区龙岗街道吓坑路",
        "latitude": "22.732723",
        "longitude": "114.327736",
        "distance": "20.456"
    }, {
        "id": 299,
        "uuid": "1a599b64-4beb-434d-a259-4da60541fd1e",
        "name": "黄小姐",
        "phone": "18026488507",
        "company": "广大",
        "township": "秋长街道",
        "address": "广东省惠州市惠阳区秋长街道G15沈海高速",
        "latitude": "22.775730",
        "longitude": "114.421784",
        "distance": "30.009"
    }, {
        "id": 300,
        "uuid": "300a517f-3858-4596-890b-c4a25c84cd27",
        "name": "何泳燕",
        "phone": "13823187092",
        "company": "鸿鑫",
        "township": "西丽街道",
        "address": "广东省深圳市南山区西丽街道福荣楼",
        "latitude": "22.618725",
        "longitude": "113.985321",
        "distance": "38.744"
    }, {
        "id": 301,
        "uuid": "89911e4b-6f22-42c7-aaf0-fa1a670df391",
        "name": "邓总",
        "phone": "13928402623",
        "company": "百家丽",
        "township": "观澜街道",
        "address": "广东省深圳市龙华区观澜街道裕豪源深圳市泓豪源家具有限公司",
        "latitude": "22.714268",
        "longitude": "114.095123",
        "distance": "29.712"
    }, {
        "id": 302,
        "uuid": "1be13316-06af-434f-82cc-90209f044ced",
        "name": "郭小姐",
        "phone": "13766228984",
        "company": "鸿嘉源-惠州",
        "township": "新圩镇",
        "address": "广东省惠州市惠阳区新圩镇联利五金塑胶制品有限公司",
        "latitude": "22.798452",
        "longitude": "114.270493",
        "distance": "26.295"
    }, {
        "id": 303,
        "uuid": "5820b20a-68fd-4064-bdf2-bf62ae0c45e6",
        "name": "蒋生",
        "phone": "18926527839",
        "company": "摩登全屋",
        "township": "凤岗镇",
        "address": "广东省东莞市凤岗镇一横路",
        "latitude": "22.710699",
        "longitude": "114.162720",
        "distance": "14.561"
    }, {
        "id": 304,
        "uuid": "e02dd695-c9f9-4be5-b44f-5ca8431952c2",
        "name": "杨生",
        "phone": "18948772313",
        "company": "金利",
        "township": "凤岗镇",
        "address": "广东省东莞市凤岗镇鑫四通",
        "latitude": "22.666113",
        "longitude": "114.175041",
        "distance": "9.005"
    }, {
        "id": 306,
        "uuid": "d76cb974-bb28-4b40-b465-475be2e6e530",
        "name": "钟小姐",
        "phone": "18928266201",
        "company": "广源",
        "township": "常平镇",
        "address": "广东省东莞市常平镇常黄路314",
        "latitude": "22.945995",
        "longitude": "114.007111",
        "distance": "68.230"
    }, {
        "id": 307,
        "uuid": "5fb124f4-835d-4a64-a5d5-b455e1ee0f68",
        "name": "玉生",
        "phone": "18675581159",
        "company": "德莱雅",
        "township": "凤岗镇",
        "address": "广东省东莞市凤岗镇水贝工业区水贝工业区8号",
        "latitude": "22.711633",
        "longitude": "114.154370",
        "distance": "15.622"
    }, {
        "id": 308,
        "uuid": "6178dae4-2cce-4f30-bbb6-afa4cc64aaa2",
        "name": "小夏",
        "phone": "18024709620",
        "company": "欧兰博",
        "township": "凤岗镇",
        "address": "广东省东莞市凤岗镇长石路",
        "latitude": "22.675695",
        "longitude": "114.176086",
        "distance": "10.245"
    }, {
        "id": 309,
        "uuid": "a73a9d0a-0e26-4b78-a809-fe441cf79982",
        "name": "周总",
        "phone": "13421320276",
        "company": "风情雅致",
        "township": "凤岗镇",
        "address": "广东省东莞市凤岗镇水贝工业区水贝工业区8号",
        "latitude": "22.711828",
        "longitude": "114.154503",
        "distance": "15.579"
    }, {
        "id": 310,
        "uuid": "cb9ff26e-17f4-44ed-ad8a-a9b9945a87f7",
        "name": "李总",
        "phone": "18118738317",
        "company": "福展",
        "township": "秋长街道",
        "address": "广东省惠州市惠阳区秋长街道秋宝路",
        "latitude": "22.785980",
        "longitude": "114.397247",
        "distance": "28.355"
    }, {
        "id": 313,
        "uuid": "044db94d-4154-4aef-90a1-a3f6afeddb7e",
        "name": "林总",
        "phone": "13410938905",
        "company": "恒太",
        "township": "凤岗镇",
        "address": "广东省东莞市凤岗镇润龙",
        "latitude": "22.715097",
        "longitude": "114.159737",
        "distance": "15.478"
    }, {
        "id": 314,
        "uuid": "da86cd17-4f87-4fef-a7c9-493ba3359108",
        "name": "李总",
        "phone": "15986800359",
        "company": "博龙",
        "township": "凤岗镇",
        "address": "广东省东莞市凤岗镇五联工业路9号",
        "latitude": "22.723072",
        "longitude": "114.129112",
        "distance": "18.694"
    }, {
        "id": 315,
        "uuid": "4d586077-a999-408c-aea1-d90efbf26e9d",
        "name": "柯",
        "phone": "18218874784",
        "company": "三和",
        "township": "黄江镇",
        "address": "广东省东莞市黄江镇东莞农村商业银行(黄江大冚分理处)",
        "latitude": "22.821495",
        "longitude": "113.976669",
        "distance": "59.084"
    }, {
        "id": 317,
        "uuid": "e0158f63-9c60-4195-92bd-9d68b75f9534",
        "name": "黄总",
        "phone": "13802220696",
        "company": "恒利发",
        "township": "坪山街道",
        "address": "广东省深圳市坪山区坪山街道金碧路522",
        "latitude": "22.679279",
        "longitude": "114.310364",
        "distance": "12.935"
    }, {
        "id": 318,
        "uuid": "49399ea7-b02a-4634-98fb-66f6004e8502",
        "name": "余生",
        "phone": "18928439958",
        "company": "豪杰",
        "township": "新圩镇",
        "address": "广东省惠州市惠阳区新圩镇杨屋仔",
        "latitude": "22.842703",
        "longitude": "114.348900",
        "distance": "39.177"
    }, {
        "id": 319,
        "uuid": "86ebbf1d-a85d-466f-83ae-23b221f5c2d2",
        "name": "胡",
        "phone": "18926047786",
        "company": "艺飞",
        "township": "西丽街道",
        "address": "广东省深圳市南山区西丽街道工业一路32",
        "latitude": "22.620827",
        "longitude": "113.980598",
        "distance": "38.426"
    }, {
        "id": 320,
        "uuid": "7702d555-e08a-4e69-a369-a7e2dd479d2d",
        "name": "李小姐",
        "phone": "13427930473",
        "company": "森林木",
        "township": "西丽街道",
        "address": "广东省深圳市南山区西丽街道大勘工业一路大磡二村",
        "latitude": "22.621422",
        "longitude": "113.981697",
        "distance": "38.251"
    }, {
        "id": 321,
        "uuid": "49c647bb-9611-4c4f-a468-95f52d753fb5",
        "name": "老板",
        "phone": "13923406752",
        "company": "康美",
        "township": "石岩街道",
        "address": "广东省深圳市宝安区石岩街道松白路2134号",
        "latitude": "22.658868",
        "longitude": "113.925771",
        "distance": "44.123"
    }, {
        "id": 322,
        "uuid": "c1d26d02-f16c-464a-b6ec-2c008e4c8373",
        "name": "刘桂芳",
        "phone": "18028770016",
        "company": "鸿远",
        "township": "西丽街道",
        "address": "广东省深圳市南山区西丽街道黄京坑羊台山森林公园",
        "latitude": "22.632555",
        "longitude": "113.971626",
        "distance": "40.326"
    }, {
        "id": 323,
        "uuid": "22df89de-3493-4ee0-b1e9-c23d59ceab14",
        "name": "王小姐",
        "phone": "15307555166",
        "company": "格曼尼",
        "township": "西丽街道",
        "address": "广东省深圳市南山区西丽街道黄京坑羊台山森林公园",
        "latitude": "22.632555",
        "longitude": "113.971626",
        "distance": "40.326"
    }, {
        "id": 324,
        "uuid": "29022ea3-eeea-4e2a-92d7-3c3ac4146635",
        "name": "刘",
        "phone": "13798219302",
        "company": "一点红",
        "township": "坪山街道",
        "address": "广东省深圳市坪山区坪山街道沙坑路",
        "latitude": "22.660843",
        "longitude": "114.288078",
        "distance": "13.271"
    }, {
        "id": 325,
        "uuid": "c4d08258-d2ce-42de-b3b7-e16ba1945890",
        "name": "杨",
        "phone": "18529543398",
        "company": "创艺鑫",
        "township": "新圩镇",
        "address": "广东省惠州市惠阳区新圩镇韦豪工业园",
        "latitude": "22.823086",
        "longitude": "114.332977",
        "distance": "28.896"
    }, {
        "id": 326,
        "uuid": "2f08bae1-f2ad-4080-93cf-d65cdd960648",
        "name": "周小姐",
        "phone": "19167006271",
        "company": "凯迪尔",
        "township": "凤岗镇",
        "address": "广东省东莞市凤岗镇东莞科达包装用品有限公司",
        "latitude": "22.743811",
        "longitude": "114.166893",
        "distance": "21.380"
    }, {
        "id": 327,
        "uuid": "349af9f7-90c3-4f6e-9b75-7877ecddae78",
        "name": "黄总",
        "phone": "13719248824",
        "company": "幸美",
        "township": "龙岗街道",
        "address": "广东省深圳市龙岗区龙岗街道大坑路2-6号",
        "latitude": "22.699184",
        "longitude": "114.309113",
        "distance": "15.191"
    }, {
        "id": 328,
        "uuid": "58a70db7-c37a-4e0f-a4f6-44c4c9316061",
        "name": "周小姐",
        "phone": "86323144___",
        "company": "百年经典",
        "township": "西丽街道",
        "address": "广东省深圳市南山区西丽街道沁园路4055号",
        "latitude": "22.614874",
        "longitude": "113.974373",
        "distance": "39.530"
    }, {
        "id": 329,
        "uuid": "27769161-328b-46b8-bb6b-8a0a54854fca",
        "name": "唐小姐",
        "phone": "18927422208",
        "company": "圣诺尼",
        "township": "西丽街道",
        "address": "广东省深圳市南山区西丽街道王京坑路86-1号",
        "latitude": "22.625191",
        "longitude": "113.973625",
        "distance": "39.848"
    }, {
        "id": 330,
        "uuid": "08d388c5-e7cf-4688-8399-327c5b8c026c",
        "name": "俞",
        "phone": "18811889212",
        "company": "德尼诺",
        "township": "西丽街道",
        "address": "广东省深圳市南山区西丽街道王京坑路87-3号",
        "latitude": "22.628906",
        "longitude": "113.969658",
        "distance": "40.059"
    }, {
        "id": 331,
        "uuid": "d3e0342b-1dcc-4ba4-8cc3-3ca22a0bca62",
        "name": "许总",
        "phone": "15820282006",
        "company": "新坐标",
        "township": "新圩镇",
        "address": "广东省惠州市惠阳区新圩镇惠州市迪贝斯家具工业园",
        "latitude": "22.818416",
        "longitude": "114.337334",
        "distance": "29.235"
    }, {
        "id": 332,
        "uuid": "6cff662d-ee5d-4fce-b56f-1c97e1231173",
        "name": "黄生",
        "phone": "15018657855",
        "company": "优诺雅",
        "township": "秋长街道",
        "address": "广东省惠州市惠阳区秋长街道惠州市仕荣工业园",
        "latitude": "22.821712",
        "longitude": "114.415283",
        "distance": "40.622"
    }, {
        "id": 333,
        "uuid": "96b3f39f-84b0-4104-af1d-b0e233c56ada",
        "name": "涂生",
        "phone": "15889638807",
        "company": "大顺",
        "township": "沙田镇",
        "address": "广东省惠州市惠阳区沙田镇松子园",
        "latitude": "22.885111",
        "longitude": "114.578247",
        "distance": "52.106"
    }, {
        "id": 334,
        "uuid": "e75d6c85-d72e-4a90-9dde-1bd732a649b6",
        "name": "王刚",
        "phone": "18124555256",
        "company": "金合",
        "township": "凤岗镇",
        "address": "广东省东莞市凤岗镇孙尔排路辉煌家园",
        "latitude": "22.759214",
        "longitude": "114.148003",
        "distance": "24.620"
    }, {
        "id": 335,
        "uuid": "4b1417db-66d1-463d-b493-419ee97a8a42",
        "name": "吕生",
        "phone": "13530321860",
        "company": "钰鑫",
        "township": "秋长街道",
        "address": "广东省惠州市惠阳区秋长街道金宏惠工业园",
        "latitude": "22.774759",
        "longitude": "114.377213",
        "distance": "27.534"
    }, {
        "id": 336,
        "uuid": "36587481-beea-4561-8b9f-f2a80f4dd70a",
        "name": "刘总",
        "phone": "13600421203",
        "company": "宝丰林",
        "township": "新圩镇",
        "address": "广东省惠州市惠阳区新圩镇源泉电镀厂",
        "latitude": "22.850695",
        "longitude": "114.268257",
        "distance": "32.677"
    }, {
        "id": 337,
        "uuid": "fd977670-f9a7-4253-b726-df158a9d3a72",
        "name": "庄生",
        "phone": "13714949587",
        "company": "达城远",
        "township": "秋长街道",
        "address": "广东省惠州市惠阳区秋长街道惠州市黄氏工业园美家美家具",
        "latitude": "22.775271",
        "longitude": "114.374321",
        "distance": "27.954"
    }, {
        "id": 338,
        "uuid": "55da6a6c-7395-406f-b55b-150420c24b1e",
        "name": "小徐",
        "phone": "13316886782",
        "company": "飞凡天",
        "township": "坪地街道",
        "address": "广东省深圳市龙岗区坪地街道誉隆街7号",
        "latitude": "22.772043",
        "longitude": "114.296402",
        "distance": "23.303"
    }, {
        "id": 339,
        "uuid": "766cf403-d578-49b9-8fa2-a95ed9bfad21",
        "name": "文总",
        "phone": "13352620617",
        "company": "耀发",
        "township": "新圩镇",
        "address": "广东省惠州市惠阳区新圩镇新圩镇第三工业区好年丰工业园",
        "latitude": "22.876650",
        "longitude": "114.332283",
        "distance": "41.539"
    }, {
        "id": 340,
        "uuid": "a0697d87-ea53-4dbd-94cd-3b42b033954b",
        "name": "林生",
        "phone": "13412882660",
        "company": "森葆",
        "township": "凤岗镇",
        "address": "广东省东莞市凤岗镇凤昌路5号",
        "latitude": "22.732515",
        "longitude": "114.168114",
        "distance": "20.771"
    }, {
        "id": 341,
        "uuid": "d59314a0-9bcb-4db5-9565-ab2760199b9e",
        "name": "马小姐",
        "phone": "18320978798",
        "company": "博威",
        "township": "塘厦镇",
        "address": "广东省东莞市塘厦镇正龙路",
        "latitude": "22.801773",
        "longitude": "114.053139",
        "distance": "47.537"
    }, {
        "id": 342,
        "uuid": "b46e527e-e017-4c58-8e29-f97b7a042822",
        "name": "龙老板",
        "phone": "13677954326",
        "company": "隆发",
        "township": "石碣镇",
        "address": "广东省东莞市石碣镇红艳阳幼儿园",
        "latitude": "23.076776",
        "longitude": "113.761017",
        "distance": "91.878"
    }, {
        "id": 343,
        "uuid": "5ace6312-ef27-4c11-bb7e-7398851908f3",
        "name": "杨乐",
        "phone": "15119060707",
        "company": "新金马",
        "township": "江南街道",
        "address": "广东省惠州市惠城区江南街道梅湖路",
        "latitude": "23.126351",
        "longitude": "114.350487",
        "distance": "78.159"
    }, {
        "id": 344,
        "uuid": "df24ecce-7d44-469c-9b6c-788f2e477b87",
        "name": "杨乐",
        "phone": "15119060707",
        "company": "新金马",
        "township": "秋长街道",
        "address": "广东省惠州市惠阳区秋长街道深圳市维信家饰材料有限公司",
        "latitude": "22.818369",
        "longitude": "114.405060",
        "distance": "44.249"
    }, {
        "id": 345,
        "uuid": "ad71ce8f-5e98-411c-af8f-d10b878ea097",
        "name": "林总",
        "phone": "13923634813",
        "company": "星源家私",
        "township": "沙田镇",
        "address": "广东省惠州市惠阳区沙田镇惠兴粮油百货长龙岗工业区",
        "latitude": "22.844531",
        "longitude": "114.526978",
        "distance": "46.136"
    }, {
        "id": 346,
        "uuid": "2f49901f-d0c6-45c1-bc43-0b65ad7f2060",
        "name": "老板",
        "phone": "13714436712",
        "company": "億辉",
        "township": "新圩镇",
        "address": "广东省惠州市惠阳区新圩镇358省道",
        "latitude": "22.820314",
        "longitude": "114.307823",
        "distance": "30.689"
    }, {
        "id": 347,
        "uuid": "0a07ce87-6bc9-4b6f-8555-a947e7d63bbd",
        "name": "熊总",
        "phone": "1530269651_",
        "company": "约莱弗",
        "township": "坪山街道",
        "address": "广东省深圳市坪山区坪山街道金碧路342号第4栋金淙淳工业园",
        "latitude": "22.675501",
        "longitude": "114.304268",
        "distance": "11.975"
    }, {
        "id": 348,
        "uuid": "4848d1de-4d00-4ca8-87a1-0b52fe549aa6",
        "name": "李生",
        "phone": "13728857049",
        "company": "晶宝",
        "township": "坪山街道",
        "address": "广东省深圳市坪山区坪山街道金碧路342号金淙淳工业园",
        "latitude": "22.675618",
        "longitude": "114.304034",
        "distance": "11.992"
    }, {
        "id": 349,
        "uuid": "e3465365-b27c-460b-9b1a-e4baf63903d2",
        "name": "李总",
        "phone": "13924677081",
        "company": "米亚",
        "township": "坪山街道",
        "address": "广东省深圳市坪山区坪山街道横坪公路107号",
        "latitude": "22.683084",
        "longitude": "114.323776",
        "distance": "14.280"
    }, {
        "id": 350,
        "uuid": "bc5c5317-9ff7-4ea9-a921-f9d29eabd24d",
        "name": "冯先生",
        "phone": "13715129785",
        "company": "林艺",
        "township": "龙岗街道",
        "address": "广东省深圳市龙岗区龙岗街道吓坑第二工业区",
        "latitude": "22.732860",
        "longitude": "114.315944",
        "distance": "20.129"
    }, {
        "id": 351,
        "uuid": "d8161fcd-8035-439f-b5cb-1cca39457da6",
        "name": "小徐",
        "phone": "18219176281",
        "company": "灵锐",
        "township": "龙岗街道",
        "address": "广东省深圳市龙岗区龙岗街道龙南路吓井一村",
        "latitude": "22.720961",
        "longitude": "114.282791",
        "distance": "16.642"
    }, {
        "id": 352,
        "uuid": "0c6eb47f-effb-4ab5-95a9-678445a26f87",
        "name": "朱长明",
        "phone": "18664939630",
        "company": "华明百年",
        "township": "龙岗街道",
        "address": "广东省深圳市龙岗区龙岗街道低山北路劲光物业新生科技六园",
        "latitude": "22.748884",
        "longitude": "114.287552",
        "distance": "18.989"
    }, {
        "id": 353,
        "uuid": "e595a753-4be3-4647-8a9c-3da7445802d3",
        "name": "贺生",
        "phone": "18098922090",
        "company": "卓雅迪尼",
        "township": "凤岗镇",
        "address": "广东省东莞市凤岗镇浸校塘振塘路12",
        "latitude": "22.773287",
        "longitude": "114.137131",
        "distance": "25.458"
    }, {
        "id": 354,
        "uuid": "965e07db-be55-416a-8ca3-c84fcb9bf3f3",
        "name": "张总",
        "phone": "15217760521",
        "company": "博泰",
        "township": "坪地街道",
        "address": "广东省深圳市龙岗区坪地街道福梓园",
        "latitude": "22.758560",
        "longitude": "114.299339",
        "distance": "20.871"
    }, {
        "id": 355,
        "uuid": "33dd7045-206f-460d-8bd5-cdf858fb241a",
        "name": "罗生",
        "phone": "13538284688",
        "company": "永晨",
        "township": "凤岗镇",
        "address": "广东省东莞市凤岗镇凤芝美工业园",
        "latitude": "22.751387",
        "longitude": "114.170517",
        "distance": "21.977"
    }, {
        "id": 356,
        "uuid": "241952e3-fa0f-434e-87a6-3d6abeaa7206",
        "name": "黄生",
        "phone": "15994789089",
        "company": "鑫华辉",
        "township": "新圩镇",
        "address": "广东省惠州市惠阳区新圩镇伟迪科技园",
        "latitude": "22.844229",
        "longitude": "114.270691",
        "distance": "32.333"
    }, {
        "id": 357,
        "uuid": "a85d3ba7-2bdb-4a1c-9d94-ba5ca1f99cf0",
        "name": "张兆华",
        "phone": "13537506583",
        "company": "华鑫悦",
        "township": "石岩街道",
        "address": "广东省深圳市宝安区石岩街道祝龙田路62号",
        "latitude": "22.698790",
        "longitude": "113.956413",
        "distance": "39.888"
    }, {
        "id": 358,
        "uuid": "8f5b7994-e9f0-4ce6-913b-3b71472c5509",
        "name": "王总",
        "phone": "18026987249",
        "company": "冠兴",
        "township": "坂田街道",
        "address": "广东省深圳市龙岗区坂田街道吉华路503-505号",
        "latitude": "22.640225",
        "longitude": "114.075599",
        "distance": "24.252"
    }, {
        "id": 359,
        "uuid": "ed34817a-94f8-422f-92f3-7f19a8575840",
        "name": "孙生",
        "phone": "13602633466",
        "company": "阳光橱柜",
        "township": "凤岗镇",
        "address": "广东省东莞市凤岗镇镇田南路富明工业园",
        "latitude": "22.682850",
        "longitude": "114.171333",
        "distance": "11.108"
    }, {
        "id": 360,
        "uuid": "b5b52b16-3488-437c-a99f-da40f098b306",
        "name": "MAY",
        "phone": "15975453428",
        "company": "名廔",
        "township": "黄江镇",
        "address": "广东省东莞市黄江镇变舍龙家具",
        "latitude": "22.826861",
        "longitude": "113.970821",
        "distance": "55.323"
    }, {
        "id": 361,
        "uuid": "5423aeac-cf94-433f-ad16-ce1f4a243fc7",
        "name": "仁者",
        "phone": "15989388789",
        "company": "明发",
        "township": "塘厦镇",
        "address": "广东省东莞市塘厦镇苗地路",
        "latitude": "22.772440",
        "longitude": "114.032959",
        "distance": "40.836"
    }, {
        "id": 362,
        "uuid": "d356a8a8-476d-43d1-bcb0-7c49ae9adb16",
        "name": "邱小姐",
        "phone": "13530889729",
        "company": "美立方",
        "township": "新圩镇",
        "address": "广东省惠州市惠阳区新圩镇东风小学",
        "latitude": "22.826090",
        "longitude": "114.306381",
        "distance": "31.084"
    }, {
        "id": 363,
        "uuid": "0dedf860-3014-4636-b257-b7f8d7a97f21",
        "name": "雷总",
        "phone": "13410076889",
        "company": "迪米创意",
        "township": "西丽街道",
        "address": "广东省深圳市南山区西丽街道欣天丽芬兰木仓库羊台山森林公园",
        "latitude": "22.631096",
        "longitude": "113.973381",
        "distance": "43.118"
    }, {
        "id": 364,
        "uuid": "52d84b27-c4fd-4570-914d-86cb70bafeea",
        "name": "邓生",
        "phone": "13510186391",
        "company": "深坑樱花",
        "township": "横岗街道",
        "address": "广东省深圳市龙岗区横岗街道六约山庄(四分店)",
        "latitude": "22.640591",
        "longitude": "114.172104",
        "distance": "9.181"
    }, {
        "id": 365,
        "uuid": "cce7b4c0-51d5-4b24-934e-5d69ce7bd307",
        "name": "彭生",
        "phone": "13530250002",
        "company": "唯可",
        "township": "塘厦镇",
        "address": "广东省东莞市塘厦镇高桥龙路",
        "latitude": "22.791847",
        "longitude": "114.038185",
        "distance": "41.634"
    }, {
        "id": 366,
        "uuid": "1f8e7778-9077-449c-a314-063b7c303b85",
        "name": "郑总",
        "phone": "13549486610",
        "company": "比思",
        "township": "凤岗镇",
        "address": "广东省东莞市凤岗镇源兴塑胶五金厂",
        "latitude": "22.721600",
        "longitude": "114.165641",
        "distance": "15.873"
    }, {
        "id": 367,
        "uuid": "d667da56-834b-4515-bc84-e516efcc9e9a",
        "name": "杨生",
        "phone": "13717101612",
        "company": "瑞昇",
        "township": "新圩镇",
        "address": "广东省惠州市惠阳区新圩镇惠州市塘吓镇易生工业园",
        "latitude": "22.814125",
        "longitude": "114.320336",
        "distance": "29.520"
    }, {
        "id": 368,
        "uuid": "c2664f4d-7694-4244-be88-e697e9c8d8b8",
        "name": "陈均新",
        "phone": "13692209893",
        "company": "鑫居",
        "township": "福城街道",
        "address": "广东省深圳市龙华区福城街道一号路百丽名苑",
        "latitude": "22.725602",
        "longitude": "114.016006",
        "distance": "34.978"
    }, {
        "id": 369,
        "uuid": "f91c9ff4-c51a-45c5-a373-da19c17757d0",
        "name": "清",
        "phone": "13510553065",
        "company": "家料",
        "township": "秋长街道",
        "address": "广东省惠州市惠阳区秋长街道明威纸品有限公司",
        "latitude": "22.824901",
        "longitude": "114.424388",
        "distance": "34.934"
    }, {
        "id": 370,
        "uuid": "3f81e4e6-d4a3-4da4-94aa-87273cf0ae0b",
        "name": "赵海全",
        "phone": "13682505006",
        "company": "豪美",
        "township": "西丽街道",
        "address": "广东省深圳市南山区西丽街道深圳中纺滤材科技有限公司",
        "latitude": "22.629366",
        "longitude": "113.969269",
        "distance": "53.881"
    }, {
        "id": 371,
        "uuid": "5f85d586-98fd-4c55-80a8-2c24b4916d31",
        "name": "李丙岩",
        "phone": "13410559516",
        "company": "阿木木",
        "township": "塘厦镇",
        "address": "广东省东莞市塘厦镇春风路112",
        "latitude": "22.800373",
        "longitude": "114.033485",
        "distance": "40.398"
    }, {
        "id": 372,
        "uuid": "7d38ce3d-624a-4aba-9307-1d9502cec940",
        "name": "丹",
        "phone": "17702624245",
        "company": "骏逸木业",
        "township": "厚街镇",
        "address": "广东省东莞市厚街镇德朗创新园",
        "latitude": "22.910504",
        "longitude": "113.629990",
        "distance": "97.260"
    }, {
        "id": 373,
        "uuid": "ac0aa7ac-e901-4b01-904e-d847c8a6bbd2",
        "name": "陈川",
        "phone": "15338038467",
        "company": "美宝",
        "township": "石排镇",
        "address": "广东省东莞市石排镇东莞市铭枫眼镜制造有限公司福隆第三工业区",
        "latitude": "23.067734",
        "longitude": "113.980751",
        "distance": "71.979"
    }, {
        "id": 374,
        "uuid": "029dc181-8813-481e-b87a-70e32a308e73",
        "name": "沈振刚",
        "phone": "13510868136",
        "company": "欧博纳",
        "township": "西丽街道",
        "address": "广东省深圳市南山区西丽街道福荣楼",
        "latitude": "22.618814",
        "longitude": "113.985390",
        "distance": "41.518"
    }, {
        "id": 375,
        "uuid": "487388fe-ae48-41cb-81cb-6f2b67c9c5e9",
        "name": "李强",
        "phone": "18682156673",
        "company": "艺尚",
        "township": "龙岗街道",
        "address": "广东省深圳市龙岗区龙岗街道深汕路龙岗段321-1号",
        "latitude": "22.717602",
        "longitude": "114.306610",
        "distance": "17.337"
    }, {
        "id": 376,
        "uuid": "7e8d8547-cf46-47a9-a193-c22047354b81",
        "name": "李小姐",
        "phone": "13410662505",
        "company": "好美宅配",
        "township": "石岩街道",
        "address": "广东省深圳市宝安区石岩街道祝龙田路166春华幼儿园",
        "latitude": "22.698872",
        "longitude": "113.958099",
        "distance": "38.036"
    }, {
        "id": 377,
        "uuid": "3d75036d-d152-4be9-920e-867e472facee",
        "name": "高生",
        "phone": "18813927738",
        "company": "高罗万象",
        "township": "西丽街道",
        "address": "广东省深圳市南山区西丽街道大勘工业一路4号B栋",
        "latitude": "22.619221",
        "longitude": "113.977776",
        "distance": "38.877"
    }, {
        "id": 378,
        "uuid": "ef603496-e4ba-459a-b638-80dc2b3e1e3d",
        "name": "黄碧容",
        "phone": "1341845601_",
        "company": "维迪轩",
        "township": "西丽街道",
        "address": "广东省深圳市南山区西丽街道杨门工业区",
        "latitude": "22.623114",
        "longitude": "113.983467",
        "distance": "38.324"
    }, {
        "id": 379,
        "uuid": "b3c262b5-cc04-4ce5-8b84-1318a4da5247",
        "name": "黄碧容",
        "phone": "13418456011",
        "company": "斯迈尔",
        "township": "西丽街道",
        "address": "广东省深圳市南山区西丽街道杨门工业区",
        "latitude": "22.623093",
        "longitude": "113.983208",
        "distance": "38.298"
    }, {
        "id": 380,
        "uuid": "0dd96a0f-70dc-4c76-925e-b1dca3cd7cb7",
        "name": "胡得意",
        "phone": "15013879802",
        "company": "亿思凯",
        "township": "石岩街道",
        "address": "广东省深圳市宝安区石岩街道开源制品厂圣轩工业园",
        "latitude": "22.688999",
        "longitude": "113.963516",
        "distance": "37.530"
    }, {
        "id": 381,
        "uuid": "dcbc87ca-9491-4640-9c66-0469f1787143",
        "name": "梁生",
        "phone": "13128805838",
        "company": "兴香",
        "township": "西丽街道",
        "address": "广东省深圳市南山区西丽街道王京坑路40-3号",
        "latitude": "22.623718",
        "longitude": "113.973801",
        "distance": "42.317"
    }, {
        "id": 382,
        "uuid": "775ee825-bfb3-4d4a-a11b-511087c35725",
        "name": "老板",
        "phone": "18938940210",
        "company": "巨匠",
        "township": "西丽街道",
        "address": "广东省深圳市南山区西丽街道王京坑工业园",
        "latitude": "22.631950",
        "longitude": "113.970285",
        "distance": "42.989"
    }, {
        "id": 383,
        "uuid": "0488805c-06f5-4b82-b559-5cb1cc0fdd6e",
        "name": "苏云香",
        "phone": "18924614540",
        "company": "艾迪尔",
        "township": "西丽街道",
        "address": "广东省深圳市南山区西丽街道杨门工业区",
        "latitude": "22.623093",
        "longitude": "113.983360",
        "distance": "38.313"
    }, {
        "id": 384,
        "uuid": "92726673-b394-4433-aae6-ea4df45fa5f6",
        "name": "唐烨",
        "phone": "18337621150",
        "company": "鸿星",
        "township": "西丽街道",
        "address": "广东省深圳市南山区西丽街道福荣楼",
        "latitude": "22.618837",
        "longitude": "113.985302",
        "distance": "41.514"
    }, {
        "id": 385,
        "uuid": "3a9c1bb8-533b-4795-a49f-6fe0481a1eaa",
        "name": "李光爱",
        "phone": "13424335006",
        "company": "艺术之家",
        "township": "秋长街道",
        "address": "广东省惠州市惠阳区秋长街道惠州市三德鑫科技有限公司",
        "latitude": "22.828140",
        "longitude": "114.436012",
        "distance": "43.852"
    }, {
        "id": 386,
        "uuid": "e8dd8cd8-5a2d-4a6a-830f-0b5c345a1665",
        "name": "庄小姐",
        "phone": "89927307___",
        "company": "阳光",
        "township": "坪山街道",
        "address": "广东省深圳市坪山区坪山街道牛麻岭路",
        "latitude": "22.688120",
        "longitude": "114.370079",
        "distance": "21.395"
    }, {
        "id": 387,
        "uuid": "8f98716f-e8e7-4531-b454-c9b89d1e4ddd",
        "name": "曾总",
        "phone": "15018696636",
        "company": "合利",
        "township": "秋长街道",
        "address": "广东省惠州市惠阳区秋长街道工业三路",
        "latitude": "22.761740",
        "longitude": "114.393707",
        "distance": "26.665"
    }, {
        "id": 388,
        "uuid": "75279fac-ac22-4bb0-84b4-2581f1d6b2ca",
        "name": "叶小姐",
        "phone": "3368621____",
        "company": "创景",
        "township": "新圩镇",
        "address": "广东省惠州市惠阳区新圩镇358省道",
        "latitude": "22.842232",
        "longitude": "114.373299",
        "distance": "40.507"
    }, {
        "id": 389,
        "uuid": "30cffd5b-151b-4feb-adc9-c9b12b7e6989",
        "name": "郭玉花",
        "phone": "15013811060",
        "company": "名厨",
        "township": "横岗街道",
        "address": "广东省深圳市龙岗区横岗街道大康路4号",
        "latitude": "22.646078",
        "longitude": "114.224594",
        "distance": "2.701"
    }, {
        "id": 390,
        "uuid": "d3f74858-b449-4b44-bbdb-43bd52ac8a82",
        "name": "吕总",
        "phone": "18476367710",
        "company": "新巢",
        "township": "龙岗街道",
        "address": "广东省深圳市龙岗区龙岗街道深汕路19号宏光楼",
        "latitude": "22.703726",
        "longitude": "114.322601",
        "distance": "18.482"
    }, {
        "id": 391,
        "uuid": "b386c2d4-1834-4f5b-9db5-d52341233ea7",
        "name": "王总",
        "phone": "13923425905",
        "company": "联发",
        "township": "横岗街道",
        "address": "广东省深圳市龙岗区横岗街道宝龙路30-8号",
        "latitude": "22.637745",
        "longitude": "114.232430",
        "distance": "1.520"
    }, {
        "id": 392,
        "uuid": "fbd58570-ee91-49d5-a838-6122bf2365ca",
        "name": "钟洪如",
        "phone": "13822798056",
        "company": "创越",
        "township": "横岗街道",
        "address": "广东省深圳市龙岗区横岗街道宝龙路30-8号",
        "latitude": "22.637745",
        "longitude": "114.232430",
        "distance": "1.520"
    }, {
        "id": 393,
        "uuid": "c95fb1eb-7ccc-44bf-8ff8-83432c89d926",
        "name": "黄总",
        "phone": "13825272059",
        "company": "莱威",
        "township": "西丽街道",
        "address": "广东省深圳市南山区西丽街道王京坑路",
        "latitude": "22.629129",
        "longitude": "113.970673",
        "distance": "42.920"
    }, {
        "id": 394,
        "uuid": "df0233eb-df22-422e-9cb7-27091741503a",
        "name": "刁小姐",
        "phone": "86358428___",
        "company": "奈卡",
        "township": "西丽街道",
        "address": "广东省深圳市南山区西丽街道王京坑路80号",
        "latitude": "22.624435",
        "longitude": "113.974113",
        "distance": "42.969"
    }, {
        "id": 395,
        "uuid": "565f14aa-613e-4cfb-828e-aec5d05584ed",
        "name": "周总",
        "phone": "15889489534",
        "company": "创德",
        "township": "中垌镇",
        "address": "广东省茂名市化州市中垌镇中垌镇中垌镇人民政府",
        "latitude": "21.841989",
        "longitude": "110.476013",
        "distance": "524.300"
    }, {
        "id": 396,
        "uuid": "b46ba19a-c486-4aaf-81ae-0f3b486a8730",
        "name": "张生",
        "phone": "18822888919",
        "company": "柏丽",
        "township": "龙岗街道",
        "address": "广东省深圳市龙岗区龙岗街道大坑路2-6号",
        "latitude": "22.699140",
        "longitude": "114.309021",
        "distance": "15.181"
    }, {
        "id": 397,
        "uuid": "0a262d45-9329-445e-979c-1e05c9f2d3c4",
        "name": "林小姐",
        "phone": "18123871102",
        "company": "美优家私",
        "township": "龙岗街道",
        "address": "广东省深圳市龙岗区龙岗街道吓坑路172号",
        "latitude": "22.730328",
        "longitude": "114.318677",
        "distance": "19.444"
    }, {
        "id": 398,
        "uuid": "4a401c20-c3be-4fe2-acfa-6fe7d5204d82",
        "name": "汪生",
        "phone": "13713985853",
        "company": "中天",
        "township": "横岗街道",
        "address": "广东省深圳市龙岗区横岗街道沙荷路1217号",
        "latitude": "22.667650",
        "longitude": "114.243988",
        "distance": "5.635"
    }, {
        "id": 399,
        "uuid": "85b8730c-9083-44bd-a7f1-8d5b78fb06b4",
        "name": "耿建超",
        "phone": "1382658481_",
        "company": "慧馨",
        "township": "龙城街道",
        "address": "广东省深圳市龙岗区龙城街道园湖横五巷3",
        "latitude": "22.679001",
        "longitude": "114.243988",
        "distance": "7.592"
    }, {
        "id": 400,
        "uuid": "b05d59f2-3011-43b6-b90c-52b333ff7f96",
        "name": "卢总",
        "phone": "13528797266",
        "company": "康艺",
        "township": "横岗街道",
        "address": "广东省深圳市龙岗区横岗街道牛始埔路7号",
        "latitude": "22.629151",
        "longitude": "114.182917",
        "distance": "6.866"
    }, {
        "id": 401,
        "uuid": "036c6e8d-b1b2-4103-83be-609c0c43b322",
        "name": "李生",
        "phone": "13922803080",
        "company": "艺桦",
        "township": "东城街道",
        "address": "广东省东莞市东城街道松达万正广场",
        "latitude": "23.036463",
        "longitude": "113.826538",
        "distance": "81.350"
    }, {
        "id": 402,
        "uuid": "1bf4fb86-69c7-4c68-97a5-7e851fafd96a",
        "name": "刘永霞",
        "phone": "18129903569",
        "company": "冠居",
        "township": "龙岗街道",
        "address": "广东省深圳市龙岗区龙岗街道大坑路2-6号",
        "latitude": "22.699266",
        "longitude": "114.308197",
        "distance": "15.119"
    }, {
        "id": 404,
        "uuid": "bac4a5d9-b610-49f5-8394-adfc8d332f28",
        "name": "邱生",
        "phone": "18664332882",
        "company": "正发",
        "township": "塘厦镇",
        "address": "广东省东莞市塘厦镇新河东路8号",
        "latitude": "22.812990",
        "longitude": "114.120628",
        "distance": "31.626"
    }, {
        "id": 405,
        "uuid": "b849ee56-18dc-4825-b4fd-88d02487958e",
        "name": "黄生",
        "phone": "15814659918",
        "company": "泉兴",
        "township": "新圩镇",
        "address": "广东省惠州市惠阳区新圩镇宝龙诚安防产品有限公司",
        "latitude": "22.813234",
        "longitude": "114.318626",
        "distance": "29.693"
    }, {
        "id": 406,
        "uuid": "63896c11-2f21-4024-9cfb-df379f869155",
        "name": "刘小姐",
        "phone": "13528792011",
        "company": "德昌",
        "township": "秋长街道",
        "address": "广东省惠州市惠阳区秋长街道湖尾",
        "latitude": "22.783830",
        "longitude": "114.416436",
        "distance": "31.728"
    }, {
        "id": 407,
        "uuid": "61a9780c-9e62-4dfc-9369-d9fc2a1bc819",
        "name": "袁辉光",
        "phone": "13556292030",
        "company": "勝光顺",
        "township": "秋长街道",
        "address": "广东省惠州市惠阳区秋长街道新美艺塑胶丝花厂",
        "latitude": "22.796181",
        "longitude": "114.409248",
        "distance": "30.716"
    }, {
        "id": 408,
        "uuid": "73462a57-fd80-4b12-ab32-2fdbc9363645",
        "name": "戴小姐",
        "phone": "18718470245",
        "company": "宏豪",
        "township": "平湖街道",
        "address": "广东省深圳市龙岗区平湖街道金城路17-2号",
        "latitude": "22.689337",
        "longitude": "114.117020",
        "distance": "24.137"
    }, {
        "id": 409,
        "uuid": "ec39ae52-845c-4119-a141-8130575fa906",
        "name": "黄总",
        "phone": "15899891921",
        "company": "健威",
        "township": "平湖街道",
        "address": "广东省深圳市龙岗区平湖街道兴达路15号",
        "latitude": "22.673015",
        "longitude": "114.158893",
        "distance": "13.587"
    }, {
        "id": 410,
        "uuid": "d9f00dae-0a03-4fee-a35a-53ed5916e706",
        "name": "付总",
        "phone": "15818695709",
        "company": "创启",
        "township": "横岗街道",
        "address": "广东省深圳市龙岗区横岗街道简龙街",
        "latitude": "22.666913",
        "longitude": "114.245221",
        "distance": "5.756"
    }, {
        "id": 412,
        "uuid": "4377b835-2b65-46e3-8388-118a95573754",
        "name": "杨总",
        "phone": "13823524406",
        "company": "安麗居",
        "township": "秋长街道",
        "address": "广东省惠州市惠阳区秋长街道秋宝路48",
        "latitude": "22.800253",
        "longitude": "114.416054",
        "distance": "31.300"
    }, {
        "id": 413,
        "uuid": "deaabf3b-6831-43ba-a009-3a01b7575a09",
        "name": "贺总",
        "phone": "13724226506",
        "company": "艾特",
        "township": "横岗街道",
        "address": "广东省深圳市龙岗区横岗街道深圳同信塑料制品厂",
        "latitude": "22.617439",
        "longitude": "114.229806",
        "distance": "3.124"
    }, {
        "id": 414,
        "uuid": "cbe5a9f9-f07b-4180-b457-395ea6025e85",
        "name": "赵云峰",
        "phone": "13480168980",
        "company": "云峰",
        "township": "横岗街道",
        "address": "广东省深圳市龙岗区横岗街道深圳同信塑料制品厂",
        "latitude": "22.617439",
        "longitude": "114.229806",
        "distance": "3.124"
    }, {
        "id": 415,
        "uuid": "a9e80dbb-0734-4eb0-a069-0b778c4215da",
        "name": "刘玉琳",
        "phone": "13266536489",
        "company": "诚意",
        "township": "横岗街道",
        "address": "广东省深圳市龙岗区横岗街道惠盐北路1054号",
        "latitude": "22.646191",
        "longitude": "114.215149",
        "distance": "4.134"
    }, {
        "id": 416,
        "uuid": "e6aafcb2-74f6-4e6e-b5be-8b9a2022bb96",
        "name": "覃永杰",
        "phone": "13510620368",
        "company": "蓝旗",
        "township": "横岗街道",
        "address": "广东省深圳市龙岗区横岗街道宝龙路26-1号",
        "latitude": "22.637829",
        "longitude": "114.232178",
        "distance": "1.520"
    }, {
        "id": 417,
        "uuid": "b6d54144-a2d8-41c3-bb74-b27b9a000221",
        "name": "廖生",
        "phone": "13266686884",
        "company": "欧客莱",
        "township": "横岗街道",
        "address": "广东省深圳市龙岗区横岗街道银海综合市场大厦银海工业区",
        "latitude": "22.664217",
        "longitude": "114.222130",
        "distance": "5.940"
    }, {
        "id": 419,
        "uuid": "2c498eed-08b7-4294-9bd4-32cb07692453",
        "name": "王前伟",
        "phone": "13352971353",
        "company": "欧尼梦",
        "township": "塘厦镇",
        "address": "广东省东莞市塘厦镇岭南大道26",
        "latitude": "22.755501",
        "longitude": "114.107582",
        "distance": "34.216"
    }, {
        "id": 420,
        "uuid": "70525503-c04a-4176-9b51-519f8b2c9636",
        "name": "阮建刚",
        "phone": "18948567313",
        "company": "惠尚格",
        "township": "潼湖镇",
        "address": "广东省惠州市惠城区潼湖镇松伯英村",
        "latitude": "23.038311",
        "longitude": "114.141319",
        "distance": "68.824"
    }, {
        "id": 421,
        "uuid": "eef0bbe4-17b8-4d97-bd19-98419374fefd",
        "name": "张总",
        "phone": "86330058___",
        "company": "正和家具",
        "township": "秋长街道",
        "address": "广东省惠州市惠阳区秋长街道惠州市正和家具有限公司",
        "latitude": "22.774221",
        "longitude": "114.423195",
        "distance": "30.502"
    }, {
        "id": 422,
        "uuid": "ee8a3736-0683-4d20-99f8-bd6480701c14",
        "name": "曹幼兰",
        "phone": "13682428101",
        "company": "奥德康",
        "township": "新圩镇",
        "address": "广东省惠州市惠阳区新圩镇柏兴工艺",
        "latitude": "22.841089",
        "longitude": "114.260262",
        "distance": "31.076"
    }, {
        "id": 423,
        "uuid": "bb7b8df4-d5f9-4ea0-b4ee-01bdd4f3f123",
        "name": "张然",
        "phone": "13798382969",
        "company": "河川",
        "township": "塘厦镇",
        "address": "广东省东莞市塘厦镇环市东路395号",
        "latitude": "22.794890",
        "longitude": "114.113418",
        "distance": "31.111"
    }, {
        "id": 424,
        "uuid": "18d90423-2b01-404a-96fe-70d9b8cb94b4",
        "name": "李东平",
        "phone": "13928411411",
        "company": "长鸿",
        "township": "新圩镇",
        "address": "广东省惠州市惠阳区新圩镇205国道",
        "latitude": "22.815970",
        "longitude": "114.330406",
        "distance": "28.287"
    }, {
        "id": 425,
        "uuid": "1641f946-5bef-4527-853d-9e2a28cc5461",
        "name": "申生",
        "phone": "15814600298",
        "company": "鸿峰",
        "township": "布吉街道",
        "address": "广东省深圳市龙岗区布吉街道深圳市唐家班影业有限公司",
        "latitude": "22.651360",
        "longitude": "114.102503",
        "distance": "21.735"
    }, {
        "id": 426,
        "uuid": "1412d49c-a7f0-46a4-b491-e351d62b3c5d",
        "name": "龙小姐",
        "phone": "15118171931",
        "company": "乐雅",
        "township": "平湖街道",
        "address": "广东省深圳市龙岗区平湖街道岭南路93号",
        "latitude": "22.696381",
        "longitude": "114.096425",
        "distance": "27.788"
    }, {
        "id": 427,
        "uuid": "a2523566-d4ab-4eee-bb68-bb3c2b942630",
        "name": "姚军",
        "phone": "13434408752",
        "company": "嘉明厂",
        "township": "新圩镇",
        "address": "广东省惠州市惠阳区新圩镇中政达工业园",
        "latitude": "22.831554",
        "longitude": "114.325272",
        "distance": "29.797"
    }, {
        "id": 428,
        "uuid": "218f0710-741f-4f66-b431-2954c380a4c7",
        "name": "张婷",
        "phone": "18938677442",
        "company": "宝祥",
        "township": "西丽街道",
        "address": "广东省深圳市南山区西丽街道王京坑工业园",
        "latitude": "22.631647",
        "longitude": "113.969772",
        "distance": "43.152"
    }, {
        "id": 429,
        "uuid": "63f1189b-dc2e-4a63-bce5-cf08628e2041",
        "name": "鄺国良",
        "phone": "13556825199",
        "company": "钿森",
        "township": "黄江镇",
        "address": "广东省东莞市黄江镇变舍龙家具",
        "latitude": "22.826473",
        "longitude": "113.970970",
        "distance": "53.720"
    }, {
        "id": 430,
        "uuid": "42d72799-5230-4ec5-93f0-801ccf467e04",
        "name": "吴桂舜",
        "phone": "13528059050",
        "company": "惠港",
        "township": "秋长街道",
        "address": "广东省惠州市惠阳区秋长街道新星幼儿园",
        "latitude": "22.813595",
        "longitude": "114.442230",
        "distance": "38.344"
    }, {
        "id": 432,
        "uuid": "8835350a-1046-415c-aa9a-d6c3a6e98686",
        "name": "廖生",
        "phone": "13600179512",
        "company": "意大利",
        "township": "秋长街道",
        "address": "广东省惠州市惠阳区秋长街道高澳",
        "latitude": "22.771679",
        "longitude": "114.372253",
        "distance": "26.376"
    }, {
        "id": 434,
        "uuid": "7bdd3712-8301-4647-8811-a8f77ae330d0",
        "name": "邓铳",
        "phone": "13246710297",
        "company": "圣所空间",
        "township": "沙田镇",
        "address": "广东省惠州市惠阳区沙田镇松子园",
        "latitude": "22.884846",
        "longitude": "114.578339",
        "distance": "52.100"
    }, {
        "id": 435,
        "uuid": "12ad0a92-47c2-47e4-a506-bd265d1522f5",
        "name": "陈先生",
        "phone": "13927471962",
        "company": "鑫华辉",
        "township": "新圩镇",
        "address": "广东省惠州市惠阳区新圩镇伟迪科技园",
        "latitude": "22.843740",
        "longitude": "114.270950",
        "distance": "33.042"
    }, {
        "id": 436,
        "uuid": "763fc1dd-874b-404d-9887-9d8b6ae8aa2e",
        "name": "赖生",
        "phone": "15989399368",
        "company": "金柏丽",
        "township": "秋长街道",
        "address": "广东省惠州市惠阳区秋长街道赢都都工业园",
        "latitude": "22.775681",
        "longitude": "114.374893",
        "distance": "27.893"
    }, {
        "id": 437,
        "uuid": "d490c9ba-63ef-43e2-b9bc-39accdac004d",
        "name": "陈",
        "phone": "15915422753",
        "company": "佳为发",
        "township": "秋长街道",
        "address": "广东省惠州市惠阳区秋长街道秋宝路",
        "latitude": "22.788479",
        "longitude": "114.399727",
        "distance": "28.636"
    }, {
        "id": 438,
        "uuid": "2f9c5c38-cd11-403c-8e67-d867e900f31b",
        "name": "张",
        "phone": "13530548717",
        "company": "文鑫",
        "township": "西丽街道",
        "address": "广东省深圳市南山区西丽街道工业一路18号",
        "latitude": "22.619457",
        "longitude": "113.978097",
        "distance": "42.101"
    }, {
        "id": 439,
        "uuid": "4d006ab2-1cc7-432c-a3be-fb9f835bb1ce",
        "name": "彭维成",
        "phone": "15342572559",
        "company": "宏明",
        "township": "潼侨镇",
        "address": "广东省惠州市惠城区潼侨镇宏川路",
        "latitude": "23.045002",
        "longitude": "114.264488",
        "distance": "64.084"
    }, {
        "id": 440,
        "uuid": "afabd1cd-08d0-4746-bdde-d52941003c54",
        "name": "邓",
        "phone": "15919485336",
        "company": "恒升",
        "township": "新圩镇",
        "address": "广东省惠州市惠阳区新圩镇龙腾工业园",
        "latitude": "22.820511",
        "longitude": "114.334747",
        "distance": "28.890"
    }, {
        "id": 441,
        "uuid": "1ad104bd-5d33-4acf-8f89-45543ba2d053",
        "name": "方长木业",
        "phone": "11111111111",
        "company": "方长木业",
        "township": "横岗街道",
        "address": "广东省深圳市龙岗区横岗街道福坑二路30-1号",
        "latitude": "22.634100",
        "longitude": "114.236000",
        "distance": "0.005"
    }, {
        "id": 442,
        "uuid": "67fc255f-4060-40be-a144-fd80dfc69fbd",
        "name": "钟小姐",
        "phone": "13728831152",
        "company": "百德利",
        "township": "凤岗镇",
        "address": "广东省东莞市凤岗镇广门电子",
        "latitude": "22.740914",
        "longitude": "114.173204",
        "distance": "20.928"
    }, {
        "id": 443,
        "uuid": "53fd89a8-5e63-42a6-b8bc-582feaa5624c",
        "name": "朱总",
        "phone": "13728674608",
        "company": "乐家",
        "township": "观澜街道",
        "address": "广东省深圳市龙华区观澜街道观澜街道君子布社区田心小区",
        "latitude": "22.712501",
        "longitude": "114.100503",
        "distance": "28.751"
    }, {
        "id": 444,
        "uuid": "e6b0f724-9807-488b-a4b5-a0db8ae87cf2",
        "name": "熊猫",
        "phone": "13662270013",
        "company": "洪伟",
        "township": "横岗街道",
        "address": "广东省深圳市龙岗区横岗街道龙兴路30-1号深圳市天然家居用品有限公司",
        "latitude": "22.639126",
        "longitude": "114.231312",
        "distance": "1.247"
    }, {
        "id": 445,
        "uuid": "ee4daa80-d29b-4970-a3ac-bcd8b9eea728",
        "name": "姣紫",
        "phone": "18138879665",
        "company": "丹尼斯",
        "township": "大岭山镇",
        "address": "广东省东莞市大岭山镇顺发南街6号",
        "latitude": "22.900423",
        "longitude": "113.847381",
        "distance": "73.812"
    }, {
        "id": 446,
        "uuid": "d33bbf58-b90d-40c0-9090-8458a01ad656",
        "name": "小魏",
        "phone": "13480606692",
        "company": "精琢智能家具",
        "township": "龙岗街道",
        "address": "广东省深圳市龙岗区龙岗街道景盛路28号",
        "latitude": "22.699082",
        "longitude": "114.305622",
        "distance": "15.433"
    }, {
        "id": 447,
        "uuid": "70035df0-ec3c-4a85-8722-a16774846ca7",
        "name": "李远平",
        "phone": "13410085349",
        "company": "艺杰",
        "township": "新圩镇",
        "address": "广东省惠州市惠阳区新圩镇嘉威分园",
        "latitude": "22.858095",
        "longitude": "114.331749",
        "distance": "42.620"
    }, {
        "id": 448,
        "uuid": "8b744336-d42d-4f6c-b9cd-34b75e4ba1bd",
        "name": "陈生",
        "phone": "13316376298",
        "company": "凯安",
        "township": "新圩镇",
        "address": "广东省惠州市惠阳区新圩镇G25长深高速",
        "latitude": "22.822254",
        "longitude": "114.336370",
        "distance": "30.985"
    }, {
        "id": 449,
        "uuid": "85a1ded5-0fb8-44ac-98c4-de74750ff356",
        "name": "兴林",
        "phone": "13662581066",
        "company": "兴林",
        "township": "新圩镇",
        "address": "广东省惠州市惠阳区新圩镇中兴工业园",
        "latitude": "22.828627",
        "longitude": "114.334061",
        "distance": "36.953"
    }, {
        "id": 450,
        "uuid": "f038dddc-021e-4302-91a7-a2069210f20e",
        "name": "刘生",
        "phone": "13682680870",
        "company": "龙生",
        "township": "坪地街道",
        "address": "广东省深圳市龙岗区坪地街道湖田路",
        "latitude": "22.779559",
        "longitude": "114.325114",
        "distance": "31.519"
    }, {
        "id": 451,
        "uuid": "ca4a4552-1461-41a1-b6de-2524efd3edb1",
        "name": "王友明",
        "phone": "13714669604",
        "company": "晶美",
        "township": "平湖街道",
        "address": "广东省深圳市龙岗区平湖街道凤岐路28号",
        "latitude": "22.686277",
        "longitude": "114.110981",
        "distance": "25.616"
    }, {
        "id": 452,
        "uuid": "cd2a2980-265a-43c1-910b-99bb91b63932",
        "name": "石总",
        "phone": "13418782305",
        "company": "金锐泰",
        "township": "布吉街道",
        "address": "广东省深圳市龙岗区布吉街道秀峰路67号秀峰工业城",
        "latitude": "22.650646",
        "longitude": "114.105661",
        "distance": "22.800"
    }, {
        "id": 453,
        "uuid": "c8e46d2c-728b-467a-96bf-ed3a8a05fa38",
        "name": "李总",
        "phone": "13612866170",
        "company": "太平洋",
        "township": "龙岗街道",
        "address": "广东省深圳市龙岗区龙岗街道兰水路169",
        "latitude": "22.730548",
        "longitude": "114.307321",
        "distance": "18.237"
    }, {
        "id": 454,
        "uuid": "1d5079fc-82dd-407f-85ea-0a5e067bcec6",
        "name": "魏生",
        "phone": "13590389690",
        "company": "亿富佳",
        "township": "塘厦镇",
        "address": "广东省东莞市塘厦镇蛟坪大道",
        "latitude": "22.784393",
        "longitude": "114.043968",
        "distance": "37.561"
    }, {
        "id": 455,
        "uuid": "f29b16c6-9e60-4ed7-bb0a-551d6112e28c",
        "name": "吕生",
        "phone": "13530321860",
        "company": "钰鑫",
        "township": "秋长街道",
        "address": "广东省惠州市惠阳区秋长街道金宏惠工业园",
        "latitude": "22.774734",
        "longitude": "114.377178",
        "distance": "27.510"
    }, {
        "id": 456,
        "uuid": "3c790584-9da4-45b9-b016-ca07a3fde534",
        "name": "阿良",
        "phone": "18677268397",
        "company": "他山",
        "township": "新圩镇",
        "address": "广东省惠州市惠阳区新圩镇大岭下桥",
        "latitude": "22.852924",
        "longitude": "114.342804",
        "distance": "41.185"
    }, {
        "id": 457,
        "uuid": "2b2201be-00dd-4ead-a880-9a2c56141408",
        "name": "王金平",
        "phone": "18079993298",
        "company": "尚阁",
        "township": "秋长街道",
        "address": "广东省惠州市惠阳区秋长街道高澳",
        "latitude": "22.771385",
        "longitude": "114.371452",
        "distance": "26.976"
    }, {
        "id": 458,
        "uuid": "379a061c-efff-4c10-bb24-e00890146207",
        "name": "雷福鸿",
        "phone": "13423880801",
        "company": "明星家私",
        "township": "秋长街道",
        "address": "广东省惠州市惠阳区秋长街道金凯源家居材料制品厂柯氏工业园",
        "latitude": "22.815393",
        "longitude": "114.422417",
        "distance": "46.147"
    }, {
        "id": 459,
        "uuid": "7cea9054-8efb-460d-95ee-b1c0bad7c117",
        "name": "李生",
        "phone": "13530077592",
        "company": "盛丰",
        "township": "新圩镇",
        "address": "广东省惠州市惠阳区新圩镇渝样样红纸上瓦缸烤鱼",
        "latitude": "22.827241",
        "longitude": "114.305041",
        "distance": "38.199"
    }, {
        "id": 460,
        "uuid": "9a04fac6-b00b-43ce-a9cd-e551c81c433d",
        "name": "杜总",
        "phone": "13713597187",
        "company": "鹏超",
        "township": "龙岗街道",
        "address": "广东省深圳市龙岗区龙岗街道丰顺小区",
        "latitude": "22.708891",
        "longitude": "114.313751",
        "distance": "18.078"
    }, {
        "id": 461,
        "uuid": "2c8fe737-02b0-45a5-84bd-e2285513eadf",
        "name": "郭",
        "phone": "17324396260",
        "company": "友仁",
        "township": "石岩街道",
        "address": "广东省深圳市宝安区石岩街道园岭大道70号圳兴中径工业园",
        "latitude": "22.694504",
        "longitude": "113.945190",
        "distance": "39.383"
    }, {
        "id": 462,
        "uuid": "acc3c604-bbf7-4f9b-8237-072ccb0a20bf",
        "name": "刘",
        "phone": "18617184858",
        "company": "嘉永发",
        "township": "新圩镇",
        "address": "广东省惠州市惠阳区新圩镇利洪",
        "latitude": "22.827126",
        "longitude": "114.307487",
        "distance": "39.641"
    }, {
        "id": 463,
        "uuid": "2798e325-b7dc-41f4-aaf2-e7f2a91d53d0",
        "name": "谢总",
        "phone": "15999573112",
        "company": "新丽",
        "township": "航城街道",
        "address": "广东省深圳市宝安区航城街道黄金水街51",
        "latitude": "22.664673",
        "longitude": "113.875295",
        "distance": "52.924"
    }, {
        "id": 464,
        "uuid": "1acf6416-33ae-4474-9822-cf6c1a4bfd0b",
        "name": "谢总",
        "phone": "15099915876",
        "company": "凤岗海洋",
        "township": "凤岗镇",
        "address": "广东省东莞市凤岗镇鸿海台和科技园东莞市骏铭汽车销售服务有限公司",
        "latitude": "22.713280",
        "longitude": "114.160583",
        "distance": "16.204"
    }, {
        "id": 465,
        "uuid": "f9592fd7-e03c-40e7-a299-dfd022fed409",
        "name": "张总",
        "phone": "18129917305",
        "company": "源兴",
        "township": "横岗街道",
        "address": "广东省深圳市龙岗区横岗街道广兴路7号",
        "latitude": "22.624096",
        "longitude": "114.225464",
        "distance": "1.992"
    }, {
        "id": 466,
        "uuid": "9e02a104-69ef-4d43-a5e3-8c2be53222e0",
        "name": "吴彩燕",
        "phone": "15994778545",
        "company": "宝居乐",
        "township": "高埗镇",
        "address": "广东省东莞市高埗镇广场北路万顺佳购物广场",
        "latitude": "23.092972",
        "longitude": "113.760996",
        "distance": "94.610"
    }, {
        "id": 467,
        "uuid": "33b86ccc-3289-49f4-8c07-97caef283d79",
        "name": "梁",
        "phone": "18820152619",
        "company": "布吉",
        "township": "南湾街道",
        "address": "广东省深圳市龙岗区南湾街道莱茵工业区",
        "latitude": "22.659307",
        "longitude": "114.122139",
        "distance": "20.392"
    }, {
        "id": 468,
        "uuid": "c92c8480-3b40-42ed-b78f-af77d82cdd15",
        "name": "甘小姐",
        "phone": "13410419615",
        "company": "唯美",
        "township": "凤岗镇",
        "address": "广东省东莞市凤岗镇凤平路",
        "latitude": "22.724391",
        "longitude": "114.134918",
        "distance": "19.341"
    }, {
        "id": 469,
        "uuid": "7d171812-02ee-4fa7-b869-f5ac3dc01e04",
        "name": "陈小姐",
        "phone": "13243807202",
        "company": "一哥",
        "township": "塘厦镇",
        "address": "广东省东莞市塘厦镇西荣路96号",
        "latitude": "22.831127",
        "longitude": "114.081787",
        "distance": "51.246"
    }, {
        "id": 470,
        "uuid": "f6a9102e-b029-40c2-a137-92b25687f751",
        "name": "高",
        "phone": "13873868866",
        "company": "诺雅斯",
        "township": "秋长街道",
        "address": "广东省惠州市惠阳区秋长街道新星幼儿园",
        "latitude": "22.813366",
        "longitude": "114.441811",
        "distance": "42.050"
    }, {
        "id": 471,
        "uuid": "8bcfe02f-b4ab-4ece-8914-b70a3fc03c74",
        "name": "吴生",
        "phone": "18948736118",
        "company": "良鑫",
        "township": "横岗街道",
        "address": "广东省深圳市龙岗区横岗街道横坪公路132号大福968工业园",
        "latitude": "22.658323",
        "longitude": "114.232651",
        "distance": "6.044"
    }, {
        "id": 472,
        "uuid": "1c3df928-6925-4cea-883c-41c75edabe4e",
        "name": "黄生",
        "phone": "13570196995",
        "company": "颖图装饰",
        "township": "石湾镇",
        "address": "广东省惠州市博罗县石湾镇湘水湾主题餐厅",
        "latitude": "23.166260",
        "longitude": "113.900436",
        "distance": "95.642"
    }, {
        "id": 473,
        "uuid": "91ff7513-2ab7-4210-bce4-2cfb2703aae5",
        "name": "温小姐",
        "phone": "18688208428",
        "company": "金腾达",
        "township": "秋长街道",
        "address": "广东省惠州市惠阳区秋长街道华昌源包装制品厂",
        "latitude": "22.781960",
        "longitude": "114.359787",
        "distance": "30.933"
    }, {
        "id": 474,
        "uuid": "59b9abde-ee8c-416f-9310-dacec73f18f9",
        "name": "黄生",
        "phone": "13570196995",
        "company": "城创",
        "township": "石湾镇",
        "address": "广东省惠州市博罗县石湾镇湘水湾主题餐厅",
        "latitude": "23.166260",
        "longitude": "113.900436",
        "distance": "102.424"
    }, {
        "id": 475,
        "uuid": "b57413fb-d577-4865-96f9-6ba2e66aacf9",
        "name": "黄",
        "phone": "13537798429",
        "company": "美怡添",
        "township": "坪地街道",
        "address": "广东省深圳市龙岗区坪地街道东雅路4",
        "latitude": "22.759470",
        "longitude": "114.322029",
        "distance": "29.284"
    }, {
        "id": 476,
        "uuid": "4e262803-a386-4f09-89b1-94d7a1a2e6ed",
        "name": "未知",
        "phone": "10000000000",
        "company": "新客户，未知",
        "township": "新圩镇",
        "address": "广东省惠州市惠阳区新圩镇948乡道",
        "latitude": "22.800755",
        "longitude": "114.264984",
        "distance": "25.722"
    }, {
        "id": 477,
        "uuid": "1cffa4af-475b-4173-bade-e0f2691a75f4",
        "name": "李",
        "phone": "13651452366",
        "company": "五度空间展示",
        "township": "龙城街道",
        "address": "广东省深圳市龙岗区龙城街道志敦巷6号",
        "latitude": "22.752409",
        "longitude": "114.251190",
        "distance": "16.943"
    }, {
        "id": 478,
        "uuid": "f4739ec4-bcc1-4b82-a472-2e41ef2a5882",
        "name": "田铮",
        "phone": "15986811901",
        "company": "轩名",
        "township": "凤岗镇",
        "address": "广东省东莞市凤岗镇中信宝·凤岗智慧制造创新产业园",
        "latitude": "22.727333",
        "longitude": "114.151604",
        "distance": "18.098"
    }, {
        "id": 479,
        "uuid": "ff6a904f-67a0-4aa6-9253-eed496df2924",
        "name": "刘小姐",
        "phone": "15817252421",
        "company": "亿思凯",
        "township": "石岩街道",
        "address": "广东省深圳市宝安区石岩街道石龙大道32号圣轩工业园",
        "latitude": "22.689026",
        "longitude": "113.963455",
        "distance": "40.234"
    }, {
        "id": 480,
        "uuid": "c58d4a44-14ec-41fd-86ed-639c8e4bd709",
        "name": "易总",
        "phone": "15989478046",
        "company": "意莱客",
        "township": "西丽街道",
        "address": "广东省深圳市南山区西丽街道杨门工业区",
        "latitude": "22.622875",
        "longitude": "113.983276",
        "distance": "41.446"
    }, {
        "id": 481,
        "uuid": "5d84fc5a-fb55-4082-926b-d614afe420d7",
        "name": "老杨",
        "phone": "07523366936",
        "company": "雅奇空间",
        "township": "新圩镇",
        "address": "广东省惠州市惠阳区新圩镇金豪成无纺布",
        "latitude": "22.829651",
        "longitude": "114.362175",
        "distance": "41.803"
    }, {
        "id": 482,
        "uuid": "9469c8c6-40c0-4aa1-8601-01fc5ec6453a",
        "name": "廖小姐",
        "phone": "18038117871",
        "company": "锦枫居",
        "township": "坪山街道",
        "address": "广东省深圳市坪山区坪山街道求水岭路恒邦大业实业工业园",
        "latitude": "22.695621",
        "longitude": "114.406059",
        "distance": "25.351"
    }, {
        "id": 483,
        "uuid": "e6f20cb7-faff-45dc-8d16-2051ad97fef5",
        "name": "翁生",
        "phone": "13632753262",
        "company": "滕源木业",
        "township": "凤岗镇",
        "address": "广东省东莞市凤岗镇龙平西路",
        "latitude": "22.720991",
        "longitude": "114.190746",
        "distance": "16.679"
    }, {
        "id": 484,
        "uuid": "dc32e3da-54c7-484a-8323-b1c37742e719",
        "name": "李",
        "phone": "18026589082",
        "company": "杰美瑞",
        "township": "新圩镇",
        "address": "广东省惠州市惠阳区新圩镇惠州市迪贝斯家具工业园",
        "latitude": "22.819775",
        "longitude": "114.337982",
        "distance": "29.836"
    }, {
        "id": 485,
        "uuid": "c1198352-b176-43d8-b2e4-961966b8c8be",
        "name": "吴",
        "phone": "13902448201",
        "company": "龙荣大装饰",
        "township": "凤岗镇",
        "address": "广东省东莞市凤岗镇联兴二路24",
        "latitude": "22.729275",
        "longitude": "114.131561",
        "distance": "19.136"
    }, {
        "id": 486,
        "uuid": "14f8b782-b91a-45fb-8235-690bdf23960b",
        "name": "朱乐",
        "phone": "18998944980",
        "company": "天晟",
        "township": "平湖街道",
        "address": "广东省深圳市龙岗区平湖街道兴达路11号",
        "latitude": "22.673544",
        "longitude": "114.158669",
        "distance": "13.480"
    }, {
        "id": 487,
        "uuid": "596fa8bb-4c7c-4c41-9672-91a1e7c3353d",
        "name": "欧生",
        "phone": "13516518850",
        "company": "百利",
        "township": "新圩镇",
        "address": "广东省惠州市惠阳区新圩镇948乡道",
        "latitude": "22.801231",
        "longitude": "114.265541",
        "distance": "27.422"
    }, {
        "id": 488,
        "uuid": "41b5aa01-2f2a-45aa-81d3-fb549de6d837",
        "name": "张总",
        "phone": "13873868866",
        "company": "客户",
        "township": "清溪镇",
        "address": "广东省东莞市清溪镇利晖路",
        "latitude": "22.811214",
        "longitude": "114.185173",
        "distance": "34.934"
    }, {
        "id": 489,
        "uuid": "f9c2c926-7136-4ac7-881d-165c85f262cb",
        "name": "杨先生",
        "phone": "18938539707",
        "company": "联达",
        "township": "企石镇",
        "address": "广东省东莞市企石镇新友谊二期工业中心",
        "latitude": "23.060148",
        "longitude": "113.988235",
        "distance": "77.614"
    }, {
        "id": 490,
        "uuid": "e2e982e3-3c64-4beb-aed2-5090f7cf73fb",
        "name": "零",
        "phone": "13873868866",
        "company": "零",
        "township": "新圩镇",
        "address": "广东省惠州市惠阳区新圩镇石角塘",
        "latitude": "22.838804",
        "longitude": "114.323517",
        "distance": "31.438"
    }, {
        "id": 491,
        "uuid": "03832800-128b-4a4b-8380-89e99e81eabd",
        "name": "曹小姐",
        "phone": "13682428101",
        "company": "凯丰",
        "township": "新圩镇",
        "address": "广东省惠州市惠阳区新圩镇益玮",
        "latitude": "22.841293",
        "longitude": "114.260178",
        "distance": "31.374"
    }, {
        "id": 492,
        "uuid": "f40b422e-79ca-4661-b1ba-814eaab276ba",
        "name": "老板",
        "phone": "18129510606",
        "company": "宏创建材",
        "township": "秋长街道",
        "address": "广东省惠州市惠阳区秋长街道金秋大道3-4号",
        "latitude": "22.816244",
        "longitude": "114.424522",
        "distance": "40.236"
    }, {
        "id": 493,
        "uuid": "acea67df-6082-4f33-a214-c5b61b5b2c38",
        "name": "彭辉",
        "phone": "13554732089",
        "company": "通发家私",
        "township": "新圩镇",
        "address": "广东省惠州市惠阳区新圩镇石角塘",
        "latitude": "22.838804",
        "longitude": "114.323517",
        "distance": "43.603"
    }, {
        "id": 494,
        "uuid": "70f3ea6c-f5c2-45fd-8309-5b84670812c1",
        "name": "钱总",
        "phone": "13530885435",
        "company": "嘉伟",
        "township": "新圩镇",
        "address": "广东省惠州市惠阳区新圩镇骏发",
        "latitude": "22.853455",
        "longitude": "114.326706",
        "distance": "42.681"
    }, {
        "id": 495,
        "uuid": "e66dada7-a36c-478b-bd60-f60626398491",
        "name": "余福天",
        "phone": "13670267166",
        "company": "龙天艳",
        "township": "新圩镇",
        "address": "广东省惠州市惠阳区新圩镇吉子",
        "latitude": "22.824903",
        "longitude": "114.317223",
        "distance": "32.373"
    }, {
        "id": 496,
        "uuid": "3bbc7946-01c4-41f3-ae44-942302e56bf1",
        "name": "小夏",
        "phone": "26554290___",
        "company": "亚欧",
        "township": "西丽街道",
        "address": "广东省深圳市南山区西丽街道沁园路7979",
        "latitude": "22.615368",
        "longitude": "113.975426",
        "distance": "41.533"
    }, {
        "id": 497,
        "uuid": "330edd0b-5d61-4b12-921a-db9fe1f59a7f",
        "name": "余小姐",
        "phone": "13560750680",
        "company": "雅立德",
        "township": "塘厦镇",
        "address": "广东省东莞市塘厦镇布格路",
        "latitude": "22.802580",
        "longitude": "114.053764",
        "distance": "43.636"
    }, {
        "id": 498,
        "uuid": "4a4b2680-066b-4834-a57d-43c3bbd02765",
        "name": "王先生",
        "phone": "13715361846",
        "company": "丽家",
        "township": "塘厦镇",
        "address": "广东省东莞市塘厦镇中心一路27号",
        "latitude": "22.791019",
        "longitude": "114.076942",
        "distance": "46.594"
    }, {
        "id": 499,
        "uuid": "40c62407-0221-4581-aa2e-97fe24704dd5",
        "name": "黎总",
        "phone": "13537841205",
        "company": "港鸿",
        "township": "横岗街道",
        "address": "广东省深圳市龙岗区横岗街道横坪公路",
        "latitude": "22.659908",
        "longitude": "114.234795",
        "distance": "5.671"
    }, {
        "id": 500,
        "uuid": "33ea15e1-c6c8-423f-802f-f5347471c67e",
        "name": "王生",
        "phone": "18926077922",
        "company": "博凯",
        "township": "石岩街道",
        "address": "广东省深圳市宝安区石岩街道石岩街道计划生育服务大楼",
        "latitude": "22.671516",
        "longitude": "113.929555",
        "distance": "45.468"
    }, {
        "id": 501,
        "uuid": "cad0b4b0-e6b8-4c4b-914c-456c6de6f873",
        "name": "老板",
        "phone": "13632725691",
        "company": "永富",
        "township": "凤岗镇",
        "address": "广东省东莞市凤岗镇255省道",
        "latitude": "22.751499",
        "longitude": "114.177177",
        "distance": "21.291"
    }, {
        "id": 502,
        "uuid": "c3f270e6-b70b-43d4-98ce-ca41bae6ee51",
        "name": "雷",
        "phone": "13686082803",
        "company": "雷清溪宏泰柜",
        "township": "清溪镇",
        "address": "广东省东莞市清溪镇利晖路",
        "latitude": "22.811176",
        "longitude": "114.185127",
        "distance": "34.430"
    }, {
        "id": 503,
        "uuid": "bd911854-d707-48a2-b7c1-163e4385ea3c",
        "name": "黄总",
        "phone": "13826573408",
        "company": "兴伟荣",
        "township": "新圩镇",
        "address": "广东省惠州市惠阳区新圩镇205国道",
        "latitude": "22.840494",
        "longitude": "114.329292",
        "distance": "43.027"
    }, {
        "id": 504,
        "uuid": "482a67ca-3460-426a-b64f-e3cf2fe9b705",
        "name": "周慧",
        "phone": "13620965812",
        "company": "欧迈雅",
        "township": "西丽街道",
        "address": "广东省深圳市南山区西丽街道欣天丽芬兰木仓库羊台山森林公园",
        "latitude": "22.630941",
        "longitude": "113.973236",
        "distance": "40.029"
    }, {
        "id": 505,
        "uuid": "4c461f2e-7d3a-4495-88db-985cf4b8d958",
        "name": "谭小玲",
        "phone": "82627870___",
        "company": "舒黎嘉展示",
        "township": "凤岗镇",
        "address": "广东省东莞市凤岗镇青塘路19号",
        "latitude": "22.721123",
        "longitude": "114.177711",
        "distance": "17.140"
    }, {
        "id": 506,
        "uuid": "65f42be2-b741-4cd6-a194-966dd469c58f",
        "name": "老邓",
        "phone": "13530949623",
        "company": "安居家居",
        "township": "秋长街道",
        "address": "广东省惠州市惠阳区秋长街道惠州市黄氏工业园美家美家具",
        "latitude": "22.775270",
        "longitude": "114.374321",
        "distance": "27.929"
    }, {
        "id": 507,
        "uuid": "3f4e7961-1262-49f8-93d8-43250df87b52",
        "name": "赖生",
        "phone": "15914024678",
        "company": "帕德龙",
        "township": "凤岗镇",
        "address": "广东省东莞市凤岗镇东莞市帕德龙橱柜有限公司宝洲工业区",
        "latitude": "22.758083",
        "longitude": "114.174805",
        "distance": "21.641"
    }, {
        "id": 508,
        "uuid": "4d792d2e-11aa-43f1-b64f-bddc268f67a0",
        "name": "黄总",
        "phone": "13530430066",
        "company": "天福",
        "township": "坪地街道",
        "address": "广东省深圳市龙岗区坪地街道吉祥三路2号",
        "latitude": "22.774214",
        "longitude": "114.296761",
        "distance": "23.525"
    }, {
        "id": 509,
        "uuid": "98ca05d3-799a-47a9-8d27-143ce6f35401",
        "name": "向婷",
        "phone": "18820920848",
        "company": "一品",
        "township": "南湾街道",
        "address": "广东省深圳市龙岗区南湾街道丹竹头高新科技园",
        "latitude": "22.627872",
        "longitude": "114.152550",
        "distance": "11.866"
    }, {
        "id": 510,
        "uuid": "29529396-4c3b-4891-8f8f-45a9f73fc8f2",
        "name": "陈总",
        "phone": "13049841807",
        "company": "鼎尚",
        "township": "坪山街道",
        "address": "广东省深圳市坪山区坪山街道新和路128号",
        "latitude": "22.700171",
        "longitude": "114.333832",
        "distance": "17.584"
    }, {
        "id": 511,
        "uuid": "cc6e0988-41bb-47f5-8ebf-12d7b4536769",
        "name": "周小姐",
        "phone": "13167006271",
        "company": "凯迪尔",
        "township": "凤岗镇",
        "address": "广东省东莞市凤岗镇东莞科达包装用品有限公司",
        "latitude": "22.743811",
        "longitude": "114.166893",
        "distance": "19.828"
    }, {
        "id": 512,
        "uuid": "b7ca1ba0-4d1e-4be2-8c6e-db06d50e8fbd",
        "name": "胡小姐",
        "phone": "13530249404",
        "company": "福美家",
        "township": "横岗街道",
        "address": "广东省深圳市龙岗区横岗街道横坪连接线",
        "latitude": "22.648752",
        "longitude": "114.233604",
        "distance": "4.719"
    }, {
        "id": 513,
        "uuid": "6fee8cd3-457f-4522-800c-dd791b149de2",
        "name": "邓彩霞",
        "phone": "13715376044",
        "company": "乐安居",
        "township": "坪山街道",
        "address": "广东省深圳市坪山区坪山街道乐安居(坪山店)",
        "latitude": "22.682581",
        "longitude": "114.338318",
        "distance": "15.183"
    }, {
        "id": 514,
        "uuid": "a3463724-39ac-4149-90c3-b751a199bcf2",
        "name": "陈总",
        "phone": "13689563801",
        "company": "新福",
        "township": "横岗街道",
        "address": "广东省深圳市龙岗区横岗街道山子下路6号东海科技工业园(山子下路)",
        "latitude": "22.647090",
        "longitude": "114.247365",
        "distance": "3.294"
    }, {
        "id": 515,
        "uuid": "ceb3b938-ad55-444b-88cf-3f74d8db6dc2",
        "name": "李刚岭",
        "phone": "13603065378",
        "company": "嶺鑫",
        "township": "新圩镇",
        "address": "广东省惠州市惠阳区新圩镇瑞民药行",
        "latitude": "22.839092",
        "longitude": "114.364494",
        "distance": "40.531"
    }, {
        "id": 516,
        "uuid": "c78535b7-1401-49c2-b026-8f255c51c90c",
        "name": "吴",
        "phone": "13873868866",
        "company": "蓝鹊全屋定制",
        "township": "小金口街道",
        "address": "广东省惠州市惠城区小金口街道G54乡道童欣幼儿园",
        "latitude": "23.147539",
        "longitude": "114.424034",
        "distance": "92.174"
    }, {
        "id": 517,
        "uuid": "fe78421f-e053-4af7-ac66-810b684fa908",
        "name": "昌",
        "phone": "3555909____",
        "company": "宝宏",
        "township": "秋长街道",
        "address": "广东省惠州市惠阳区秋长街道东升工业园",
        "latitude": "22.837023",
        "longitude": "114.446381",
        "distance": "41.514"
    }, {
        "id": 518,
        "uuid": "79334413-5cbe-430c-b8a7-f0293651a0c0",
        "name": "王杏荣",
        "phone": "13316592275",
        "company": "南新橱柜",
        "township": "坪山街道",
        "address": "广东省深圳市坪山区坪山街道矮岭社区",
        "latitude": "22.693054",
        "longitude": "114.399971",
        "distance": "24.612"
    }, {
        "id": 519,
        "uuid": "7d04b7e4-e041-45b8-92c8-0fc5de7a1ba0",
        "name": "唐建辉",
        "phone": "18922870808",
        "company": "深发家私",
        "township": "秋长街道",
        "address": "广东省惠州市惠阳区秋长街道秋宝路49",
        "latitude": "22.781406",
        "longitude": "114.389420",
        "distance": "29.773"
    }, {
        "id": 520,
        "uuid": "30c1ff3e-b9c8-412b-b9aa-2238add00a51",
        "name": "钟生",
        "phone": "18926544409",
        "company": "中浩园",
        "township": "平湖街道",
        "address": "广东省深圳市龙岗区平湖街道宝鹅工业区9栋",
        "latitude": "22.675497",
        "longitude": "114.158905",
        "distance": "13.226"
    }, {
        "id": 521,
        "uuid": "607b7704-9275-4f8e-9714-306c87478338",
        "name": "李生",
        "phone": "18002926806",
        "company": "国创装饰",
        "township": "厚街镇",
        "address": "广东省东莞市厚街镇双岗上环沙头涌路漫图家居",
        "latitude": "22.912672",
        "longitude": "113.627090",
        "distance": "101.963"
    }, {
        "id": 522,
        "uuid": "9c9f195f-3ea3-46bc-b9bd-c1dc7cd18813",
        "name": "龙泰美",
        "phone": "18988797670",
        "company": "龙泰美门厂",
        "township": "坪地街道",
        "address": "广东省深圳市龙岗区坪地街道花园路3号",
        "latitude": "22.760456",
        "longitude": "114.288742",
        "distance": "20.211"
    }, {
        "id": 523,
        "uuid": "0454e790-88e1-460a-923c-ee3bc539761a",
        "name": "吴生",
        "phone": "13692806613",
        "company": "蓝鹊全屋定制",
        "township": "小金口街道",
        "address": "广东省惠州市惠城区小金口街道G54乡道童欣幼儿园",
        "latitude": "23.147539",
        "longitude": "114.424034",
        "distance": "80.137"
    }, {
        "id": 524,
        "uuid": "a64b2214-636c-4e7e-95a1-7510382f8df5",
        "name": "袁明庆",
        "phone": "13713266720",
        "company": "超联",
        "township": "塘厦镇",
        "address": "广东省东莞市塘厦镇三发路宝田工业园",
        "latitude": "22.758995",
        "longitude": "114.121811",
        "distance": "29.796"
    }, {
        "id": 525,
        "uuid": "7715b16e-3622-44f9-b9f9-b7f517536f77",
        "name": "老板",
        "phone": "13829907735",
        "company": "幸福门业",
        "township": "新圩镇",
        "address": "广东省惠州市惠阳区新圩镇惠州木造家具有限公司",
        "latitude": "22.825232",
        "longitude": "114.333178",
        "distance": "29.103"
    }, {
        "id": 526,
        "uuid": "448bb534-605f-4a97-8502-661915717901",
        "name": "朱生",
        "phone": "13713996940",
        "company": "惠港厨柜家私",
        "township": "秋长街道",
        "address": "广东省惠州市惠阳区秋长街道人民三路88-96号喜来乐大酒店(人民三路)",
        "latitude": "22.815010",
        "longitude": "114.442139",
        "distance": "38.207"
    }, {
        "id": 527,
        "uuid": "735f5102-1e76-4e1c-b3ef-2b40b20f98a5",
        "name": "老马",
        "phone": "13691963373",
        "company": "艺境期",
        "township": "横岗街道",
        "address": "广东省深圳市龙岗区横岗街道陶仔补胎",
        "latitude": "22.646927",
        "longitude": "114.222176",
        "distance": "3.131"
    }, {
        "id": 528,
        "uuid": "fcc96222-a892-46e0-a321-bf93e4e0e7a7",
        "name": "刘总",
        "phone": "89501869___",
        "company": "鸿煜达",
        "township": "横岗街道",
        "address": "广东省深圳市龙岗区横岗街道深圳市红莓生物科技有限公司",
        "latitude": "22.647226",
        "longitude": "114.242424",
        "distance": "3.584"
    }, {
        "id": 529,
        "uuid": "f6c36ed6-5d4c-4540-b84b-cb00165f36ad",
        "name": "张祥彬",
        "phone": "15992868751",
        "company": "鸿发木器制品厂",
        "township": "茶山镇",
        "address": "广东省东莞市茶山镇顺晟工业园沙墩园区",
        "latitude": "23.054041",
        "longitude": "113.862206",
        "distance": "82.179"
    }, {
        "id": 530,
        "uuid": "34ce872a-64bf-4e98-bed9-c3f3c8453ef5",
        "name": "赖先生",
        "phone": "13609693513",
        "company": "尚全",
        "township": "虎门镇",
        "address": "广东省东莞市虎门镇海韵",
        "latitude": "22.753790",
        "longitude": "113.698158",
        "distance": "94.000"
    }, {
        "id": 531,
        "uuid": "fe2f4b30-266a-4878-818a-fe99482be7f4",
        "name": "黄小姐",
        "phone": "17688799528",
        "company": "优秀girl",
        "township": "清溪镇",
        "address": "广东省东莞市清溪镇清塘路1号",
        "latitude": "22.815592",
        "longitude": "114.152611",
        "distance": "30.849"
    }, {
        "id": 532,
        "uuid": "cba94e38-55f4-4dbc-a2d7-3bad3ae5f3af",
        "name": "伍小姐",
        "phone": "18682015708",
        "company": "全屋定制",
        "township": "秋长街道",
        "address": "广东省惠州市惠阳区秋长街道远建工业园",
        "latitude": "22.790272",
        "longitude": "114.398880",
        "distance": "29.384"
    }, {
        "id": 533,
        "uuid": "f57729fd-3abb-4b1c-bc9a-db42d0a30276",
        "name": "曹生",
        "phone": "18902464459",
        "company": "恒盛橱柜",
        "township": "南湾街道",
        "address": "广东省深圳市龙岗区南湾街道G4E武深高速",
        "latitude": "22.633614",
        "longitude": "114.167412",
        "distance": "10.089"
    }, {
        "id": 534,
        "uuid": "a9202c46-8f96-44b4-8ab4-70d5c1d8f2f3",
        "name": "杨伟清",
        "phone": "17350099901",
        "company": "卓达家私厂",
        "township": "秋长街道",
        "address": "广东省惠州市惠阳区秋长街道惠州市博茂木业",
        "latitude": "22.786650",
        "longitude": "114.388962",
        "distance": "28.864"
    }, {
        "id": 535,
        "uuid": "d742df5f-b1b2-4ba4-ab65-690e1012ff24",
        "name": "小草",
        "phone": "18124652073",
        "company": "欧柏丽",
        "township": "石岩街道",
        "address": "广东省深圳市宝安区石岩街道月明街75号崇基工业园",
        "latitude": "22.682764",
        "longitude": "113.949005",
        "distance": "40.015"
    }, {
        "id": 536,
        "uuid": "5abe89bf-1cf1-44a1-be8f-e6d0225c8270",
        "name": "周小姐",
        "phone": "18938044132",
        "company": "绿牌家具",
        "township": "坪地街道",
        "address": "广东省深圳市龙岗区坪地街道老围路",
        "latitude": "22.787670",
        "longitude": "114.319672",
        "distance": "26.570"
    }, {
        "id": 537,
        "uuid": "1a0c1369-29b4-4a79-849e-36de48cf9263",
        "name": "林建辉",
        "phone": "13823519758",
        "company": "随心",
        "township": "龙岗街道",
        "address": "广东省深圳市龙岗区龙岗街道同昌路96号安南中国重汽",
        "latitude": "22.712748",
        "longitude": "114.291977",
        "distance": "15.588"
    }, {
        "id": 538,
        "uuid": "932012de-a1b1-4ce3-8680-8c3bed52cc53",
        "name": "美联",
        "phone": "13530581300",
        "company": "美联",
        "township": "龙岗街道",
        "address": "广东省深圳市龙岗区龙岗街道龙城大道164百富城(龙平东路)",
        "latitude": "22.740231",
        "longitude": "114.260132",
        "distance": "16.028"
    }, {
        "id": 539,
        "uuid": "9a918d94-e830-40be-a0e3-fe85278b0fed",
        "name": "胡春",
        "phone": "18926047786",
        "company": "艺辉",
        "township": "西丽街道",
        "address": "广东省深圳市南山区西丽街道工业一路19大磡二村",
        "latitude": "22.621281",
        "longitude": "113.980110",
        "distance": "41.355"
    }, {
        "id": 540,
        "uuid": "546eb2ff-91c2-45e6-b8af-8c9ceafd3bbf",
        "name": "刘华江",
        "phone": "13430404074",
        "company": "好创意",
        "township": "新圩镇",
        "address": "广东省惠州市惠阳区新圩镇惠州市三和弘国五金制品有限公司",
        "latitude": "22.798815",
        "longitude": "114.267593",
        "distance": "28.173"
    }, {
        "id": 541,
        "uuid": "bb4ec466-48f0-458d-b993-ce458154603d",
        "name": "柯",
        "phone": "13418579256",
        "company": "盈佳橱柜",
        "township": "观澜街道",
        "address": "广东省深圳市龙华区观澜街道观澜街道君子布社区田心小区",
        "latitude": "22.712469",
        "longitude": "114.100311",
        "distance": "28.853"
    }, {
        "id": 542,
        "uuid": "3b78b268-26c4-42fd-9fc3-5fe678f7b6df",
        "name": "郑先生",
        "phone": "13560747390",
        "company": "高端科",
        "township": "新圩镇",
        "address": "广东省惠州市惠阳区新圩镇长城",
        "latitude": "22.849941",
        "longitude": "114.322540",
        "distance": "34.173"
    }, {
        "id": 543,
        "uuid": "e31574a3-a1dc-4e65-bd30-8fd48eb224d1",
        "name": "邱生",
        "phone": "13641493989",
        "company": "盛旺家具",
        "township": "秋长街道",
        "address": "广东省惠州市惠阳区秋长街道秋溪南路",
        "latitude": "22.815554",
        "longitude": "114.419395",
        "distance": "33.499"
    }, {
        "id": 544,
        "uuid": "28facbe7-4ddf-4043-b4c2-19a619831508",
        "name": "严先生",
        "phone": "13603015380",
        "company": "曼城",
        "township": "粤海街道",
        "address": "广东省深圳市南山区粤海街道粤海门村阳光粤海",
        "latitude": "22.533461",
        "longitude": "113.940659",
        "distance": "48.652"
    }, {
        "id": 545,
        "uuid": "9db27882-314c-4806-b73d-760b9b5c1df2",
        "name": "卢生",
        "phone": "13692795984",
        "company": "永旺傢俱",
        "township": "秋长街道",
        "address": "广东省惠州市惠阳区秋长街道将军路",
        "latitude": "22.845102",
        "longitude": "114.428810",
        "distance": "36.378"
    }, {
        "id": 546,
        "uuid": "9c2dbc00-1fa0-4dcd-94f6-ec11a4dcbf74",
        "name": "毛生",
        "phone": "17727576243",
        "company": "德欧经典",
        "township": "大岭山镇",
        "address": "广东省东莞市大岭山镇龟地二街",
        "latitude": "22.841764",
        "longitude": "113.828926",
        "distance": "66.417"
    }, {
        "id": 547,
        "uuid": "353e3e84-f229-4ab2-a441-255fbe3f0d9e",
        "name": "林总",
        "phone": "13823201056",
        "company": "雅兴居",
        "township": "秋长街道",
        "address": "广东省惠州市惠阳区秋长街道远建工业园黄埔实验学校",
        "latitude": "22.789484",
        "longitude": "114.399096",
        "distance": "29.080"
    }, {
        "id": 548,
        "uuid": "38eeb477-0e7e-4fb9-8507-789494b7aef3",
        "name": "许生",
        "phone": "15889552515",
        "company": "高阳世家",
        "township": "横岗街道",
        "address": "广东省深圳市龙岗区横岗街道深竹西路",
        "latitude": "22.640789",
        "longitude": "114.172882",
        "distance": "9.498"
    }, {
        "id": 549,
        "uuid": "fb47c2df-f88a-4377-9519-a58817ab5f13",
        "name": "梁生",
        "phone": "13825739045",
        "company": "庚盛",
        "township": "凤岗镇",
        "address": "广东省东莞市凤岗镇东莞市帕德龙橱柜有限公司宝洲工业区",
        "latitude": "22.758083",
        "longitude": "114.174805",
        "distance": "20.850"
    }, {
        "id": 550,
        "uuid": "39dffd34-d1af-4db6-a3c0-d043feedf90c",
        "name": "老板",
        "phone": "13_________",
        "company": "百富城",
        "township": "龙岗街道",
        "address": "广东省深圳市龙岗区龙岗街道五联一路百富城(龙平东路)",
        "latitude": "22.740660",
        "longitude": "114.260986",
        "distance": "16.548"
    }, {
        "id": 551,
        "uuid": "00a855e0-1c50-450b-ad83-680a462c083f",
        "name": "周小姐",
        "phone": "13480923634",
        "company": "嘉鑫丽",
        "township": "坪山街道",
        "address": "广东省深圳市坪山区坪山街道金碧路503-1号",
        "latitude": "22.669189",
        "longitude": "114.288116",
        "distance": "12.886"
    }, {
        "id": 552,
        "uuid": "5e1479e0-3a1d-4d40-b395-e519ff18fbca",
        "name": "王晓晓",
        "phone": "17325899905",
        "company": "新宏鑫",
        "township": "新圩镇",
        "address": "广东省惠州市惠阳区新圩镇黄氏新宏鑫",
        "latitude": "22.819607",
        "longitude": "114.318733",
        "distance": "32.479"
    }, {
        "id": 553,
        "uuid": "fe41e32a-be0d-4561-b930-d14fe3304045",
        "name": "周总",
        "phone": "15889489534",
        "company": "创德",
        "township": "凤岗镇",
        "address": "广东省东莞市凤岗镇宇翔科技产业园",
        "latitude": "22.770897",
        "longitude": "114.135765",
        "distance": "25.152"
    }, {
        "id": 554,
        "uuid": "668f19c3-51c7-411f-8762-5f92a52e4211",
        "name": "杨其来",
        "phone": "13603097856",
        "company": "豪莱客",
        "township": "惠阳经济开发区",
        "address": "广东省惠州市惠阳区惠阳经济开发区沿河路",
        "latitude": "22.889795",
        "longitude": "114.493896",
        "distance": "59.684"
    }, {
        "id": 556,
        "uuid": "f08e644b-5694-4bd0-ab6a-8f1aea5f6fd9",
        "name": "梁总",
        "phone": "13692159908",
        "company": "祥瑞",
        "township": "新圩镇",
        "address": "广东省惠州市惠阳区新圩镇龙珠幼儿园",
        "latitude": "22.843668",
        "longitude": "114.266495",
        "distance": "32.074"
    }, {
        "id": 557,
        "uuid": "0b6794a7-0e46-41f1-9da1-03a4b4d2096c",
        "name": "美女",
        "phone": "13737523407",
        "company": "中厨",
        "township": "观澜街道",
        "address": "广东省深圳市龙华区观澜街道深圳市中厨厨柜有限公司",
        "latitude": "22.739250",
        "longitude": "114.098328",
        "distance": "31.760"
    }, {
        "id": 558,
        "uuid": "3dcf1fe3-34ff-4be6-bde5-8e8b5bd728f6",
        "name": "吴文安",
        "phone": "13430622235",
        "company": "安晨家私",
        "township": "秋长街道",
        "address": "广东省惠州市惠阳区秋长街道B51乡道",
        "latitude": "22.783823",
        "longitude": "114.368786",
        "distance": "29.908"
    }, {
        "id": 559,
        "uuid": "df874f41-3111-4b7b-a0c8-56fed4287014",
        "name": "张生",
        "phone": "18129569659",
        "company": "好家枫",
        "township": "大亚湾西区街道",
        "address": "广东省惠州市惠阳区大亚湾西区街道平衡餐厅",
        "latitude": "22.722082",
        "longitude": "114.430443",
        "distance": "30.170"
    }, {
        "id": 560,
        "uuid": "1e5919bd-1066-4d40-9b67-e126a1254b9a",
        "name": "林生",
        "phone": "13428920096",
        "company": "宝丽家居",
        "township": "龙岗街道",
        "address": "广东省深圳市龙岗区龙岗街道兰水路109号",
        "latitude": "22.728069",
        "longitude": "114.310127",
        "distance": "19.670"
    }, {
        "id": 561,
        "uuid": "cdc75b88-dc7c-4365-a7c5-24a43df23f5d",
        "name": "骆生",
        "phone": "13713518886",
        "company": "宜家",
        "township": "笋岗街道",
        "address": "广东省深圳市罗湖区笋岗街道洪湖一街五号大院",
        "latitude": "22.559458",
        "longitude": "114.123055",
        "distance": "20.023"
    }, {
        "id": 562,
        "uuid": "f099ad77-7dca-470f-95c9-d2e8215e0bac",
        "name": "康少",
        "phone": "13928455034",
        "company": "五方奥尼尔",
        "township": "龙岗街道",
        "address": "广东省深圳市龙岗区龙岗街道新勤街5号",
        "latitude": "22.741819",
        "longitude": "114.277740",
        "distance": "17.958"
    }, {
        "id": 563,
        "uuid": "cd062569-307e-46a5-8c28-7b7ffb0bed01",
        "name": "李尚俊",
        "phone": "13509435288",
        "company": "中艺家具",
        "township": "黄江镇",
        "address": "广东省东莞市黄江镇东莞市旺顺建材有限公司",
        "latitude": "22.895964",
        "longitude": "114.035881",
        "distance": "58.251"
    }, {
        "id": 564,
        "uuid": "02bf48c5-f81c-4746-b343-df2c0266a46b",
        "name": "赵先生",
        "phone": "18938936511",
        "company": "鼎丰家居",
        "township": "西丽街道",
        "address": "广东省深圳市南山区西丽街道大磡商业街193号",
        "latitude": "22.622547",
        "longitude": "113.971878",
        "distance": "42.677"
    }, {
        "id": 565,
        "uuid": "04c898dc-0719-4323-9f01-34d8a5e634ec",
        "name": "老板",
        "phone": "18819726001",
        "company": "新怡美",
        "township": "新圩镇",
        "address": "广东省惠州市惠阳区新圩镇名创展示",
        "latitude": "22.831564",
        "longitude": "114.320053",
        "distance": "39.311"
    }, {
        "id": 566,
        "uuid": "ad5ffb6a-9fc8-4dba-8c8f-ca346e1ba46e",
        "name": "王生",
        "phone": "18024657588",
        "company": "晟宇家居",
        "township": "塘厦镇",
        "address": "广东省东莞市塘厦镇宏业北十路宏源鑫工业园",
        "latitude": "22.813061",
        "longitude": "114.080994",
        "distance": "47.102"
    }, {
        "id": 567,
        "uuid": "c8e0ef37-772d-484c-a991-e2c163423f43",
        "name": "冯莎莎",
        "phone": "13410362485",
        "company": "衣柜",
        "township": "西丽街道",
        "address": "广东省深圳市南山区西丽街道联发大厦杨门工业区",
        "latitude": "22.621096",
        "longitude": "113.984153",
        "distance": "40.753"
    }, {
        "id": 568,
        "uuid": "6e8a18b5-2c17-41a3-aeb1-5e53e2da6106",
        "name": "冯莎莎",
        "phone": "13410362485",
        "company": "衣柜",
        "township": "西丽街道",
        "address": "广东省深圳市南山区西丽街道联发大厦杨门工业区",
        "latitude": "22.621096",
        "longitude": "113.984153",
        "distance": "40.753"
    }, {
        "id": 569,
        "uuid": "89dac5c6-28ac-46a5-ac7b-96723ea95b9e",
        "name": "付",
        "phone": "15814433398",
        "company": "雅比厂",
        "township": "秋长街道",
        "address": "广东省惠州市惠阳区秋长街道惠州市鑫百盛包装技术有限公司",
        "latitude": "22.792454",
        "longitude": "114.422577",
        "distance": "32.010"
    }, {
        "id": 570,
        "uuid": "fb795721-ee5f-473b-b02b-77e9162db23b",
        "name": "骏发",
        "phone": "15880717257",
        "company": "骏发",
        "township": "新圩镇",
        "address": "广东省惠州市惠阳区新圩镇城市快餐",
        "latitude": "22.817865",
        "longitude": "114.339966",
        "distance": "31.843"
    }, {
        "id": 571,
        "uuid": "dbad29a8-d7f6-4e62-95a8-ee0ea0b9de8e",
        "name": "耿先生",
        "phone": "17620313267",
        "company": "慧馨",
        "township": "龙城街道",
        "address": "广东省深圳市龙岗区龙城街道沙荷路",
        "latitude": "22.678238",
        "longitude": "114.243271",
        "distance": "7.090"
    }, {
        "id": 572,
        "uuid": "42d2f900-179e-49b9-b1cc-77e737989704",
        "name": "李洪为",
        "phone": "13692201810",
        "company": "华佳美",
        "township": "坪地街道",
        "address": "广东省深圳市龙岗区坪地街道东雅路64号",
        "latitude": "22.757439",
        "longitude": "114.322639",
        "distance": "31.376"
    }, {
        "id": 573,
        "uuid": "1d02a9ce-5480-4331-a752-4e71d0029752",
        "name": "洪生",
        "phone": "13537835771",
        "company": "启牧",
        "township": "新圩镇",
        "address": "广东省惠州市惠阳区新圩镇惠州市林海家具有限公司",
        "latitude": "22.843915",
        "longitude": "114.370073",
        "distance": "42.029"
    }, {
        "id": 574,
        "uuid": "81117eb7-64bd-45e7-9a4e-bbca2c84094f",
        "name": "萧",
        "phone": "13631518137",
        "company": "金海涛",
        "township": "新圩镇",
        "address": "广东省惠州市惠阳区新圩镇益鸿工业区B区",
        "latitude": "22.840618",
        "longitude": "114.340317",
        "distance": "42.677"
    }, {
        "id": 575,
        "uuid": "ed6adc58-5288-45f8-a3a0-713ed22ac82e",
        "name": "乔总",
        "phone": "13480935691",
        "company": "集创",
        "township": "新圩镇",
        "address": "广东省惠州市惠阳区新圩镇集创家具厂",
        "latitude": "22.851009",
        "longitude": "114.273315",
        "distance": "32.730"
    }, {
        "id": 576,
        "uuid": "6b7ebe0e-eea6-4b69-83ae-5e9951ffaf83",
        "name": "朱生",
        "phone": "15338861811",
        "company": "星唐木制品厂",
        "township": "龙岗街道",
        "address": "广东省深圳市龙岗区龙岗街道龙岗大道7090号门面",
        "latitude": "22.743774",
        "longitude": "114.282967",
        "distance": "18.869"
    }, {
        "id": 577,
        "uuid": "063d8482-dc86-4d21-a163-cb5a049007aa",
        "name": "杨行",
        "phone": "15018676663",
        "company": "德意家居",
        "township": "江北街道",
        "address": "广东省惠州市惠城区江北街道旺岗路183-3号",
        "latitude": "23.122828",
        "longitude": "114.429489",
        "distance": "78.390"
    }, {
        "id": 578,
        "uuid": "64d8f96d-f84e-4dd4-a0db-481a2a104ca1",
        "name": "杨先生",
        "phone": "15018676663",
        "company": "德意定制2",
        "township": "小金口街道",
        "address": "广东省惠州市惠城区小金口街道惠州市中泰亿尚家具有限公司",
        "latitude": "23.166218",
        "longitude": "114.397804",
        "distance": "83.772"
    }, {
        "id": 579,
        "uuid": "e7d77a1a-e748-4aff-95e2-c9f088d8357b",
        "name": "陈总",
        "phone": "18773050851",
        "company": "米乐家具",
        "township": "凤岗镇",
        "address": "广东省东莞市凤岗镇碧园路",
        "latitude": "22.733313",
        "longitude": "114.154091",
        "distance": "19.112"
    }, {
        "id": 580,
        "uuid": "a14c9dd8-6701-454f-98c1-52d717f78273",
        "name": "邓生",
        "phone": "13430940439",
        "company": "新达",
        "township": "新圩镇",
        "address": "广东省惠州市惠阳区新圩镇宏发五金塑胶厂奥士康科技园",
        "latitude": "22.845209",
        "longitude": "114.360298",
        "distance": "38.944"
    }, {
        "id": 581,
        "uuid": "f4f9f773-a694-4198-9518-b7411ae02bfe",
        "name": "小谭",
        "phone": "13392411835",
        "company": "菲尼伽",
        "township": "大亚湾西区街道",
        "address": "广东省惠州市惠阳区大亚湾西区街道公园道花园",
        "latitude": "22.740753",
        "longitude": "114.460518",
        "distance": "33.146"
    }, {
        "id": 584,
        "uuid": "88bd02cd-462c-4ae3-95de-2922ee059e62",
        "name": "刘",
        "phone": "1882095558_",
        "company": "泰兴家私",
        "township": "新圩镇",
        "address": "广东省惠州市惠阳区新圩镇塘吓大道7号",
        "latitude": "22.834952",
        "longitude": "114.331100",
        "distance": "29.816"
    }, {
        "id": 585,
        "uuid": "7b845125-8c18-4424-b007-7f6e6f1173bb",
        "name": "小喻",
        "phone": "13428686831",
        "company": "美佳全屋定制",
        "township": "龙岗街道",
        "address": "广东省深圳市龙岗区龙岗街道G15沈海高速",
        "latitude": "22.707293",
        "longitude": "114.277695",
        "distance": "20.871"
    }, {
        "id": 586,
        "uuid": "99843ad0-91cf-439b-a684-619254025fdb",
        "name": "李",
        "phone": "13684996852",
        "company": "富森源",
        "township": "龙城街道",
        "address": "广东省深圳市龙岗区龙城街道瓦窑四路",
        "latitude": "22.755090",
        "longitude": "114.238954",
        "distance": "20.732"
    }, {
        "id": 587,
        "uuid": "7d74eff4-94a9-4cab-8a8a-2b5814553213",
        "name": "廖",
        "phone": "18329358366",
        "company": "百慕达",
        "township": "坪山街道",
        "address": "广东省深圳市坪山区坪山街道新和路128号",
        "latitude": "22.700171",
        "longitude": "114.333832",
        "distance": "17.585"
    }, {
        "id": 588,
        "uuid": "ec77c8a9-bdcf-4347-a2e4-274ad896004a",
        "name": "张",
        "phone": "07523299576",
        "company": "辉丽橱柜",
        "township": "秋长街道",
        "address": "广东省惠州市惠阳区秋长街道新鸿兴家私厂",
        "latitude": "22.803047",
        "longitude": "114.399909",
        "distance": "30.531"
    }, {
        "id": 589,
        "uuid": "dc7dce09-973f-41d7-9c65-1c5c046a2e39",
        "name": "李生",
        "phone": "18924609944",
        "company": "永达",
        "township": "秋长街道",
        "address": "广东省惠州市惠阳区秋长街道大恒艺术浮雕培训",
        "latitude": "22.773130",
        "longitude": "114.376572",
        "distance": "27.635"
    }, {
        "id": 590,
        "uuid": "bd522c22-632f-4d09-a29f-3744335b59cd",
        "name": "位先生",
        "phone": "13510579516",
        "company": "老位",
        "township": "坪山街道",
        "address": "广东省深圳市坪山区坪山街道深圳市博晶港实业有限公司",
        "latitude": "22.676502",
        "longitude": "114.316757",
        "distance": "13.745"
    }, {
        "id": 591,
        "uuid": "de5e4559-1cfd-41e7-befc-aac8a14036bc",
        "name": "钟成",
        "phone": "13249082951",
        "company": "凡嵘石材",
        "township": "镇隆镇",
        "address": "广东省惠州市惠阳区镇隆镇长龙清泉游乐场",
        "latitude": "22.901508",
        "longitude": "114.321114",
        "distance": "43.333"
    }, {
        "id": 592,
        "uuid": "62c801f4-abce-4d3c-a738-8b081feb3689",
        "name": "老位",
        "phone": "13510579516",
        "company": "老位家具",
        "township": "坪山街道",
        "address": "广东省深圳市坪山区坪山街道深圳市博晶港实业有限公司",
        "latitude": "22.676502",
        "longitude": "114.316757",
        "distance": "17.378"
    }, {
        "id": 593,
        "uuid": "1f44e1af-9c7a-4d99-bf98-192b541ddb88",
        "name": "老板",
        "phone": "13590432022",
        "company": "盛鸿达木业",
        "township": "笋岗街道",
        "address": "广东省深圳市罗湖区笋岗街道洪湖二街十号大院",
        "latitude": "22.562311",
        "longitude": "114.121033",
        "distance": "19.849"
    }, {
        "id": 594,
        "uuid": "60479f37-0289-44f8-968b-46c92a49fab3",
        "name": "蔡生",
        "phone": "13728685301",
        "company": "恒栢木门厂",
        "township": "新圩镇",
        "address": "广东省惠州市惠阳区新圩镇东美电子有限公司",
        "latitude": "22.827503",
        "longitude": "114.309547",
        "distance": "31.276"
    }, {
        "id": 595,
        "uuid": "ce50e9d0-cdd5-4094-8934-c45161e1090e",
        "name": "罗锡华",
        "phone": "13590076161",
        "company": "美智",
        "township": "塘厦镇",
        "address": "广东省东莞市塘厦镇宏业北七路1号聚宝工业园",
        "latitude": "22.816111",
        "longitude": "114.085243",
        "distance": "45.398"
    }, {
        "id": 596,
        "uuid": "086e81d3-93a6-4169-8361-28ad7ffbf8f6",
        "name": "艳子",
        "phone": "18926783451",
        "company": "金潮家居",
        "township": "大浪街道",
        "address": "广东省深圳市龙华区大浪街道欧比大厦",
        "latitude": "22.673300",
        "longitude": "113.995590",
        "distance": "39.785"
    }, {
        "id": 597,
        "uuid": "38a83177-5777-4840-9acc-164c623de115",
        "name": "李总",
        "phone": "15916388178",
        "company": "永兴发",
        "township": "秋长街道",
        "address": "广东省惠州市惠阳区秋长街道G15沈海高速",
        "latitude": "22.774948",
        "longitude": "114.422798",
        "distance": "30.532"
    }, {
        "id": 598,
        "uuid": "5e586725-04ec-4dc6-b13a-b501d52cdd44",
        "name": "刘欢",
        "phone": "13612956101",
        "company": "如意美居",
        "township": "凤岗镇",
        "address": "广东省东莞市凤岗镇凤芝美高新智谷产业园",
        "latitude": "22.752220",
        "longitude": "114.170166",
        "distance": "23.187"
    }, {
        "id": 599,
        "uuid": "7f12864b-19e1-4814-b132-6b9dac6d8514",
        "name": "张总",
        "phone": "15118087670",
        "company": "圣峰宜",
        "township": "凤岗镇",
        "address": "广东省东莞市凤岗镇凤芝美高新智谷产业园",
        "latitude": "22.751922",
        "longitude": "114.170367",
        "distance": "23.222"
    }]
}